{
"type": "FeatureCollection",
"name": "nodes",
"crs": { "type": "name", "properties": { "name": "urn:ogc:def:crs:OGC:1.3:CRS84" } },
"features": [
{ "type": "Feature", "properties": { "oid": 1110395, "country": "kenya", "type": "station", "name": "Ainabkoi", "facility": null, "gauge": "1000" }, "geometry": { "type": "Point", "coordinates": [ 35.52128, 0.162535 ] } },
{ "type": "Feature", "properties": { "oid": 1110580, "country": "kenya", "type": "station", "name": "Athi River", "facility": null, "gauge": "1000" }, "geometry": { "type": "Point", "coordinates": [ 36.975862, -1.449393 ] } },
{ "type": "Feature", "properties": { "oid": 1111331, "country": "kenya", "type": "station", "name": "Athi River", "facility": null, "gauge": "1000" }, "geometry": { "type": "Point", "coordinates": [ 36.975895, -1.44941 ] } },
{ "type": "Feature", "properties": { "oid": 1111340, "country": "kenya", "type": "station", "name": "Athi River Station", "facility": null, "gauge": "1435" }, "geometry": { "type": "Point", "coordinates": [ 36.990903, -1.46802 ] } },
{ "type": "Feature", "properties": { "oid": 1110368, "country": "kenya", "type": "station", "name": "Buchuma", "facility": null, "gauge": "1000" }, "geometry": { "type": "Point", "coordinates": [ 38.894882, -3.641592 ] } },
{ "type": "Feature", "properties": { "oid": 1110586, "country": "kenya", "type": "station", "name": "Bungoma", "facility": null, "gauge": "1000" }, "geometry": { "type": "Point", "coordinates": [ 34.560917, 0.571599 ] } },
{ "type": "Feature", "properties": { "oid": 1111338, "country": "kenya", "type": "station", "name": "Bura Station", "facility": null, "gauge": "1000" }, "geometry": { "type": "Point", "coordinates": [ 38.316541, -3.501829 ] } },
{ "type": "Feature", "properties": { "oid": 1110265, "country": "kenya", "type": "station", "name": "Butere", "facility": null, "gauge": "1000" }, "geometry": { "type": "Point", "coordinates": [ 34.502841, 0.219312 ] } },
{ "type": "Feature", "properties": { "oid": 1110096, "country": "kenya", "type": "station", "name": "Changamwe", "facility": null, "gauge": "1000" }, "geometry": { "type": "Point", "coordinates": [ 39.631965, -4.014481 ] } },
{ "type": "Feature", "properties": { "oid": 1110552, "country": "kenya", "type": "station", "name": "Chemelil", "facility": null, "gauge": "1000" }, "geometry": { "type": "Point", "coordinates": [ 35.112162, -0.105711 ] } },
{ "type": "Feature", "properties": { "oid": 1110202, "country": "kenya", "type": "station", "name": "Dagoreti", "facility": null, "gauge": "1000" }, "geometry": { "type": "Point", "coordinates": [ 36.696676, -1.291831 ] } },
{ "type": "Feature", "properties": { "oid": 1110183, "country": "kenya", "type": "station", "name": "Darajani", "facility": null, "gauge": "1000" }, "geometry": { "type": "Point", "coordinates": [ 38.118005, -2.587367 ] } },
{ "type": "Feature", "properties": { "oid": 1110146, "country": "kenya", "type": "station", "name": "Elburgon", "facility": null, "gauge": "1000" }, "geometry": { "type": "Point", "coordinates": [ 35.809426, -0.303054 ] } },
{ "type": "Feature", "properties": { "oid": 1120217, "country": "kenya", "type": "station", "name": "Eldoret", "facility": null, "gauge": "1000" }, "geometry": { "type": "Point", "coordinates": [ 35.273528, 0.523622 ] } },
{ "type": "Feature", "properties": { "oid": 1110349, "country": "kenya", "type": "stop", "name": "Emali", "facility": null, "gauge": "1435" }, "geometry": { "type": "Point", "coordinates": [ 37.473216, -2.084207 ] } },
{ "type": "Feature", "properties": { "oid": 1110095, "country": "kenya", "type": "station", "name": "Embakasi", "facility": null, "gauge": "1000" }, "geometry": { "type": "Point", "coordinates": [ 36.894114, -1.350596 ] } },
{ "type": "Feature", "properties": { "oid": 1110094, "country": "kenya", "type": "station", "name": "Embakasi Village", "facility": null, "gauge": "1000" }, "geometry": { "type": "Point", "coordinates": [ 36.915611, -1.31775 ] } },
{ "type": "Feature", "properties": { "oid": 1110286, "country": "kenya", "type": "station", "name": "Equator", "facility": null, "gauge": "1000" }, "geometry": { "type": "Point", "coordinates": [ 35.56975, 0.00003 ] } },
{ "type": "Feature", "properties": { "oid": 1110068, "country": "kenya", "type": "station", "name": "Esageri", "facility": null, "gauge": "1000" }, "geometry": { "type": "Point", "coordinates": [ 35.783803, -0.064205 ] } },
{ "type": "Feature", "properties": { "oid": 1110502, "country": "kenya", "type": "station", "name": "Fort Ternan", "facility": null, "gauge": "1000" }, "geometry": { "type": "Point", "coordinates": [ 35.344693, -0.205238 ] } },
{ "type": "Feature", "properties": { "oid": 1110062, "country": "kenya", "type": "station", "name": "Gilgil", "facility": null, "gauge": "1000" }, "geometry": { "type": "Point", "coordinates": [ 36.325549, -0.497697 ] } },
{ "type": "Feature", "properties": { "oid": 1110077, "country": "kenya", "type": "station", "name": "Githurai", "facility": null, "gauge": "1000" }, "geometry": { "type": "Point", "coordinates": [ 36.920639, -1.206293 ] } },
{ "type": "Feature", "properties": { "oid": 1110002, "country": "kenya", "type": "station", "name": "Highway Edge", "facility": null, "gauge": "1000" }, "geometry": { "type": "Point", "coordinates": [ 36.908608, -1.366586 ] } },
{ "type": "Feature", "properties": { "oid": 1110351, "country": "kenya", "type": "station", "name": "Ikoyo", "facility": null, "gauge": "1000" }, "geometry": { "type": "Point", "coordinates": [ 37.784907, -2.239483 ] } },
{ "type": "Feature", "properties": { "oid": 1110061, "country": "kenya", "type": "station", "name": "Ilkek", "facility": null, "gauge": "1000" }, "geometry": { "type": "Point", "coordinates": [ 36.370975, -0.597276 ] } },
{ "type": "Feature", "properties": { "oid": 1110001, "country": "kenya", "type": "station", "name": "Imara Daima", "facility": null, "gauge": "1000" }, "geometry": { "type": "Point", "coordinates": [ 36.874451, -1.328619 ] } },
{ "type": "Feature", "properties": { "oid": 1111328, "country": "kenya", "type": "station", "name": "Imara Daima Railway Station", "facility": null, "gauge": "1000" }, "geometry": { "type": "Point", "coordinates": [ 36.874358, -1.328499 ] } },
{ "type": "Feature", "properties": { "oid": 1110359, "country": "kenya", "type": "station", "name": "Irima", "facility": null, "gauge": "1000" }, "geometry": { "type": "Point", "coordinates": [ 38.533871, -3.359361 ] } },
{ "type": "Feature", "properties": { "oid": 1110173, "country": "kenya", "type": "station", "name": "Kahawa", "facility": null, "gauge": "1000" }, "geometry": { "type": "Point", "coordinates": [ 36.912022, -1.186963 ] } },
{ "type": "Feature", "properties": { "oid": 1120437, "country": "kenya", "type": "station", "name": "Kajiado Railway Station", "facility": null, "gauge": "1000" }, "geometry": { "type": "Point", "coordinates": [ 36.794445, -1.84067 ] } },
{ "type": "Feature", "properties": { "oid": 1110191, "country": "kenya", "type": "station", "name": "Kalembwani", "facility": null, "gauge": "1000" }, "geometry": { "type": "Point", "coordinates": [ 37.189428, -1.936262 ] } },
{ "type": "Feature", "properties": { "oid": 1110397, "country": "kenya", "type": "station", "name": "Kaptagat", "facility": null, "gauge": "1000" }, "geometry": { "type": "Point", "coordinates": [ 35.470642, 0.372873 ] } },
{ "type": "Feature", "properties": { "oid": 1110519, "country": "kenya", "type": "station", "name": "Karatina", "facility": null, "gauge": "1000" }, "geometry": { "type": "Point", "coordinates": [ 37.127265, -0.477091 ] } },
{ "type": "Feature", "properties": { "oid": 1110309, "country": "kenya", "type": "station", "name": "Kedowa", "facility": null, "gauge": "1000" }, "geometry": { "type": "Point", "coordinates": [ 35.543289, -0.219408 ] } },
{ "type": "Feature", "properties": { "oid": 1110701, "country": "kenya", "type": "station", "name": "Kenani", "facility": null, "gauge": "1000" }, "geometry": { "type": "Point", "coordinates": [ 38.337343, -2.860328 ] } },
{ "type": "Feature", "properties": { "oid": 1110553, "country": "kenya", "type": "station", "name": "Kibigori", "facility": null, "gauge": "1000" }, "geometry": { "type": "Point", "coordinates": [ 35.049876, -0.074234 ] } },
{ "type": "Feature", "properties": { "oid": 1110350, "country": "kenya", "type": "station", "name": "Kiboko", "facility": null, "gauge": "1000" }, "geometry": { "type": "Point", "coordinates": [ 37.727195, -2.207127 ] } },
{ "type": "Feature", "properties": { "oid": 1110331, "country": "kenya", "type": "station", "name": "Kibos", "facility": null, "gauge": "1000" }, "geometry": { "type": "Point", "coordinates": [ 34.811837, -0.070075 ] } },
{ "type": "Feature", "properties": { "oid": 1110354, "country": "kenya", "type": "station", "name": "Kibwezi", "facility": null, "gauge": "1000" }, "geometry": { "type": "Point", "coordinates": [ 37.961295, -2.410853 ] } },
{ "type": "Feature", "properties": { "oid": 1121350, "country": "kenya", "type": "station", "name": "Kibwezi Station", "facility": null, "gauge": "1435" }, "geometry": { "type": "Point", "coordinates": [ 37.9371, -2.406463 ] } },
{ "type": "Feature", "properties": { "oid": 1110205, "country": "kenya", "type": "station", "name": "Kiganjo", "facility": null, "gauge": "1000" }, "geometry": { "type": "Point", "coordinates": [ 37.001588, -0.382497 ] } },
{ "type": "Feature", "properties": { "oid": 1110144, "country": "kenya", "type": "station", "name": "Kijabe", "facility": null, "gauge": "1000" }, "geometry": { "type": "Point", "coordinates": [ 36.602176, -0.947651 ] } },
{ "type": "Feature", "properties": { "oid": 1110353, "country": "kenya", "type": "station", "name": "Kikumbulyu", "facility": null, "gauge": "1000" }, "geometry": { "type": "Point", "coordinates": [ 38.02407, -2.435114 ] } },
{ "type": "Feature", "properties": { "oid": 1110145, "country": "kenya", "type": "station", "name": "Kikuyu", "facility": null, "gauge": "1000" }, "geometry": { "type": "Point", "coordinates": [ 36.660855, -1.246134 ] } },
{ "type": "Feature", "properties": { "oid": 1110538, "country": "kenya", "type": "station", "name": "Kilimambogo Bus Station", "facility": null, "gauge": "1000" }, "geometry": { "type": "Point", "coordinates": [ 37.086664, -1.035335 ] } },
{ "type": "Feature", "properties": { "oid": 1121304, "country": "kenya", "type": "station", "name": "Kima", "facility": null, "gauge": "1435" }, "geometry": { "type": "Point", "coordinates": [ 37.23416, -1.95889 ] } },
{ "type": "Feature", "properties": { "oid": 1110544, "country": "kenya", "type": "station", "name": "Kima", "facility": null, "gauge": "1000" }, "geometry": { "type": "Point", "coordinates": [ 37.259035, -1.959714 ] } },
{ "type": "Feature", "properties": { "oid": 1110153, "country": "kenya", "type": "station", "name": "Kipkabus", "facility": null, "gauge": "1000" }, "geometry": { "type": "Point", "coordinates": [ 35.500349, 0.297642 ] } },
{ "type": "Feature", "properties": { "oid": 1120336, "country": "kenya", "type": "station", "name": "Kipkarren", "facility": null, "gauge": "1000" }, "geometry": { "type": "Point", "coordinates": [ 34.971994, 0.610989 ] } },
{ "type": "Feature", "properties": { "oid": 1110252, "country": "kenya", "type": "station", "name": "Kipkelion", "facility": null, "gauge": "1000" }, "geometry": { "type": "Point", "coordinates": [ 35.425473, -0.214064 ] } },
{ "type": "Feature", "properties": { "oid": 1110148, "country": "kenya", "type": "station", "name": "Kipkelion", "facility": null, "gauge": "1000" }, "geometry": { "type": "Point", "coordinates": [ 35.471092, -0.19837 ] } },
{ "type": "Feature", "properties": { "oid": 1110277, "country": "kenya", "type": "station", "name": "Kisian", "facility": null, "gauge": "1000" }, "geometry": { "type": "Point", "coordinates": [ 34.677124, -0.071196 ] } },
{ "type": "Feature", "properties": { "oid": 1110663, "country": "kenya", "type": "station", "name": "Kisumu", "facility": null, "gauge": "1000" }, "geometry": { "type": "Point", "coordinates": [ 34.747512, -0.10465 ] } },
{ "type": "Feature", "properties": { "oid": 1111835, "country": "kenya", "type": "stop", "name": "Kisumu Inland Container Depot", "facility": "dry_port", "gauge": "1000" }, "geometry": { "type": "Point", "coordinates": [ 34.792988, -0.069776 ] } },
{ "type": "Feature", "properties": { "oid": 1110185, "country": "kenya", "type": "halt", "name": "Kitengela Halt", "facility": null, "gauge": "1000" }, "geometry": { "type": "Point", "coordinates": [ 36.97286, -1.48979 ] } },
{ "type": "Feature", "properties": { "oid": 1110190, "country": "kenya", "type": "station", "name": "Kiu", "facility": null, "gauge": "1000" }, "geometry": { "type": "Point", "coordinates": [ 37.16122, -1.900135 ] } },
{ "type": "Feature", "properties": { "oid": 1110186, "country": "kenya", "type": "station", "name": "Konza", "facility": null, "gauge": "1000" }, "geometry": { "type": "Point", "coordinates": [ 37.129637, -1.741275 ] } },
{ "type": "Feature", "properties": { "oid": 1110228, "country": "kenya", "type": "station", "name": "Koru", "facility": null, "gauge": "1000" }, "geometry": { "type": "Point", "coordinates": [ 35.264138, -0.179685 ] } },
{ "type": "Feature", "properties": { "oid": 1110024, "country": "kenya", "type": "halt", "name": "Laini Saba Railway Halt", "facility": null, "gauge": "1000" }, "geometry": { "type": "Point", "coordinates": [ 36.79717, -1.311154 ] } },
{ "type": "Feature", "properties": { "oid": 1110276, "country": "kenya", "type": "station", "name": "Lela", "facility": null, "gauge": "1000" }, "geometry": { "type": "Point", "coordinates": [ 34.605608, -0.029089 ] } },
{ "type": "Feature", "properties": { "oid": 1111281, "country": "kenya", "type": "station", "name": "Leseru\/Kitale Junction", "facility": null, "gauge": "1000" }, "geometry": { "type": "Point", "coordinates": [ 35.17783, 0.584503 ] } },
{ "type": "Feature", "properties": { "oid": 1110169, "country": "kenya", "type": "station", "name": "Limuru Train Station", "facility": null, "gauge": "1000" }, "geometry": { "type": "Point", "coordinates": [ 36.6428, -1.114998 ] } },
{ "type": "Feature", "properties": { "oid": 1110299, "country": "kenya", "type": "station", "name": "Londiani", "facility": null, "gauge": "1000" }, "geometry": { "type": "Point", "coordinates": [ 35.594016, -0.16677 ] } },
{ "type": "Feature", "properties": { "oid": 1111329, "country": "kenya", "type": "station", "name": "Londiani Railway Station", "facility": null, "gauge": "1000" }, "geometry": { "type": "Point", "coordinates": [ 35.593534, -0.166952 ] } },
{ "type": "Feature", "properties": { "oid": 1110271, "country": "kenya", "type": "station", "name": "Luanda", "facility": null, "gauge": "1000" }, "geometry": { "type": "Point", "coordinates": [ 34.575528, 0.034539 ] } },
{ "type": "Feature", "properties": { "oid": 1110537, "country": "kenya", "type": "station", "name": "Lukenya", "facility": null, "gauge": "1000" }, "geometry": { "type": "Point", "coordinates": [ 36.965487, -1.523635 ] } },
{ "type": "Feature", "properties": { "oid": 1111234, "country": "kenya", "type": "stop", "name": "Maai Mahiu", "facility": null, "gauge": "1435" }, "geometry": { "type": "Point", "coordinates": [ 36.536335, -1.060373 ] } },
{ "type": "Feature", "properties": { "oid": 1110150, "country": "kenya", "type": "station", "name": "Maji Mazuri", "facility": null, "gauge": "1000" }, "geometry": { "type": "Point", "coordinates": [ 35.694802, -0.01409 ] } },
{ "type": "Feature", "properties": { "oid": 1111354, "country": "kenya", "type": "station", "name": "Makadara Railway Station", "facility": null, "gauge": "1000" }, "geometry": { "type": "Point", "coordinates": [ 36.870539, -1.298221 ] } },
{ "type": "Feature", "properties": { "oid": 1110352, "country": "kenya", "type": "station", "name": "Makindu", "facility": null, "gauge": "1000" }, "geometry": { "type": "Point", "coordinates": [ 37.827932, -2.283084 ] } },
{ "type": "Feature", "properties": { "oid": 1110578, "country": "kenya", "type": "station", "name": "Maktau", "facility": null, "gauge": "1000" }, "geometry": { "type": "Point", "coordinates": [ 38.136475, -3.410051 ] } },
{ "type": "Feature", "properties": { "oid": 1110304, "country": "kenya", "type": "station", "name": "Makutano", "facility": null, "gauge": "1000" }, "geometry": { "type": "Point", "coordinates": [ 35.654185, -0.061427 ] } },
{ "type": "Feature", "properties": { "oid": 1120164, "country": "kenya", "type": "station", "name": "Malaba", "facility": null, "gauge": "1000" }, "geometry": { "type": "Point", "coordinates": [ 34.272786, 0.633424 ] } },
{ "type": "Feature", "properties": { "oid": 1110357, "country": "kenya", "type": "station", "name": "Manyani", "facility": null, "gauge": "1000" }, "geometry": { "type": "Point", "coordinates": [ 38.493738, -3.091833 ] } },
{ "type": "Feature", "properties": { "oid": 1110531, "country": "kenya", "type": "station", "name": "Maragua", "facility": null, "gauge": "1000" }, "geometry": { "type": "Point", "coordinates": [ 37.129907, -0.800242 ] } },
{ "type": "Feature", "properties": { "oid": 1110440, "country": "kenya", "type": "station", "name": "Mariakani", "facility": null, "gauge": "1000" }, "geometry": { "type": "Point", "coordinates": [ 39.471222, -3.865769 ] } },
{ "type": "Feature", "properties": { "oid": 1111351, "country": "kenya", "type": "station", "name": "Mariakani Station", "facility": null, "gauge": "1435" }, "geometry": { "type": "Point", "coordinates": [ 39.460531, -3.860378 ] } },
{ "type": "Feature", "properties": { "oid": 1110274, "country": "kenya", "type": "halt", "name": "Maseno", "facility": null, "gauge": "1000" }, "geometry": { "type": "Point", "coordinates": [ 34.582163, -0.018054 ] } },
{ "type": "Feature", "properties": { "oid": 1111335, "country": "kenya", "type": "station", "name": "Mashoti station", "facility": null, "gauge": "1000" }, "geometry": { "type": "Point", "coordinates": [ 38.233573, -3.480342 ] } },
{ "type": "Feature", "properties": { "oid": 1110180, "country": "kenya", "type": "station", "name": "Masongaleni", "facility": null, "gauge": "1000" }, "geometry": { "type": "Point", "coordinates": [ 38.050297, -2.489502 ] } },
{ "type": "Feature", "properties": { "oid": 1110330, "country": "kenya", "type": "station", "name": "Matathia", "facility": null, "gauge": "1000" }, "geometry": { "type": "Point", "coordinates": [ 36.620961, -0.976552 ] } },
{ "type": "Feature", "properties": { "oid": 1110307, "country": "kenya", "type": "station", "name": "Mau summit", "facility": null, "gauge": "1000" }, "geometry": { "type": "Point", "coordinates": [ 35.679771, -0.171625 ] } },
{ "type": "Feature", "properties": { "oid": 1110645, "country": "kenya", "type": "station", "name": "Maungu", "facility": null, "gauge": "1435" }, "geometry": { "type": "Point", "coordinates": [ 38.740054, -3.549128 ] } },
{ "type": "Feature", "properties": { "oid": 1110050, "country": "kenya", "type": "station", "name": "Maungu", "facility": null, "gauge": "1000" }, "geometry": { "type": "Point", "coordinates": [ 38.751492, -3.556456 ] } },
{ "type": "Feature", "properties": { "oid": 1110054, "country": "kenya", "type": "station", "name": "Mazeras", "facility": null, "gauge": "1000" }, "geometry": { "type": "Point", "coordinates": [ 39.548339, -3.965804 ] } },
{ "type": "Feature", "properties": { "oid": 1110179, "country": "kenya", "type": "halt", "name": "Mbuinzau", "facility": null, "gauge": "1000" }, "geometry": { "type": "Point", "coordinates": [ 37.899653, -2.365023 ] } },
{ "type": "Feature", "properties": { "oid": 1110496, "country": "kenya", "type": "station", "name": "Menengai", "facility": null, "gauge": "1000" }, "geometry": { "type": "Point", "coordinates": [ 35.966007, -0.204594 ] } },
{ "type": "Feature", "properties": { "oid": 1120699, "country": "kenya", "type": "station", "name": "Mgalani", "facility": null, "gauge": "1435" }, "geometry": { "type": "Point", "coordinates": [ 39.187649, -3.771951 ] } },
{ "type": "Feature", "properties": { "oid": 1121348, "country": "kenya", "type": "station", "name": "Miasenyi Station", "facility": null, "gauge": "1435" }, "geometry": { "type": "Point", "coordinates": [ 38.921698, -3.657268 ] } },
{ "type": "Feature", "properties": { "oid": 1110204, "country": "kenya", "type": "station", "name": "Miritini", "facility": null, "gauge": "1000" }, "geometry": { "type": "Point", "coordinates": [ 39.57618, -4.004664 ] } },
{ "type": "Feature", "properties": { "oid": 1110555, "country": "kenya", "type": "station", "name": "Miwani", "facility": null, "gauge": "1000" }, "geometry": { "type": "Point", "coordinates": [ 34.984512, -0.073331 ] } },
{ "type": "Feature", "properties": { "oid": 1110340, "country": "kenya", "type": "station", "name": "Moi's Bridge", "facility": null, "gauge": "1000" }, "geometry": { "type": "Point", "coordinates": [ 35.116736, 0.878585 ] } },
{ "type": "Feature", "properties": { "oid": 1110147, "country": "kenya", "type": "station", "name": "Molo", "facility": null, "gauge": "1000" }, "geometry": { "type": "Point", "coordinates": [ 35.732209, -0.245471 ] } },
{ "type": "Feature", "properties": { "oid": 1113191, "country": "kenya", "type": "stop", "name": "Mombasa Port", "facility": "container_port", "gauge": "1435" }, "geometry": { "type": "Point", "coordinates": [ 39.648694, -4.056326 ] } },
{ "type": "Feature", "properties": { "oid": 1112489, "country": "kenya", "type": "stop", "name": "Mombasa Port", "facility": "container_port", "gauge": "1000" }, "geometry": { "type": "Point", "coordinates": [ 39.649631, -4.057914 ] } },
{ "type": "Feature", "properties": { "oid": 1110956, "country": "kenya", "type": "station", "name": "Mombasa Terminus", "facility": null, "gauge": "1435" }, "geometry": { "type": "Point", "coordinates": [ 39.579537, -4.021253 ] } },
{ "type": "Feature", "properties": { "oid": 1110312, "country": "kenya", "type": "station", "name": "Morendat", "facility": null, "gauge": "1000" }, "geometry": { "type": "Point", "coordinates": [ 36.38639, -0.671088 ] } },
{ "type": "Feature", "properties": { "oid": 1110184, "country": "kenya", "type": "station", "name": "Mtito Andei", "facility": null, "gauge": "1000" }, "geometry": { "type": "Point", "coordinates": [ 38.171048, -2.688735 ] } },
{ "type": "Feature", "properties": { "oid": 1111352, "country": "kenya", "type": "station", "name": "Mtito Andei Station", "facility": null, "gauge": "1435" }, "geometry": { "type": "Point", "coordinates": [ 38.171036, -2.690163 ] } },
{ "type": "Feature", "properties": { "oid": 1110168, "country": "kenya", "type": "station", "name": "Muguga", "facility": null, "gauge": "1000" }, "geometry": { "type": "Point", "coordinates": [ 36.648916, -1.178721 ] } },
{ "type": "Feature", "properties": { "oid": 1110227, "country": "kenya", "type": "station", "name": "Muhoroni", "facility": null, "gauge": "1000" }, "geometry": { "type": "Point", "coordinates": [ 35.201531, -0.15453 ] } },
{ "type": "Feature", "properties": { "oid": 1110294, "country": "kenya", "type": "station", "name": "Munyu", "facility": null, "gauge": "1000" }, "geometry": { "type": "Point", "coordinates": [ 36.44842, -0.789526 ] } },
{ "type": "Feature", "properties": { "oid": 1110579, "country": "kenya", "type": "station", "name": "Mwatate", "facility": null, "gauge": "1000" }, "geometry": { "type": "Point", "coordinates": [ 38.397268, -3.513328 ] } },
{ "type": "Feature", "properties": { "oid": 1110729, "country": "kenya", "type": "station", "name": "Mwiki Train Station Bay", "facility": null, "gauge": "1000" }, "geometry": { "type": "Point", "coordinates": [ 36.937068, -1.236467 ] } },
{ "type": "Feature", "properties": { "oid": 1111699, "country": "kenya", "type": "station", "name": "Nairobi Central Station", "facility": null, "gauge": "1000" }, "geometry": { "type": "Point", "coordinates": [ 36.828828, -1.291748 ] } },
{ "type": "Feature", "properties": { "oid": 1113126, "country": "kenya", "type": "stop", "name": "Nairobi Inland Container Port", "facility": "dry_port", "gauge": "1435" }, "geometry": { "type": "Point", "coordinates": [ 36.876592, -1.332318 ] } },
{ "type": "Feature", "properties": { "oid": 1113089, "country": "kenya", "type": "stop", "name": "Naivasha Inland Container Depot (MGR)", "facility": "dry_port", "gauge": "1000" }, "geometry": { "type": "Point", "coordinates": [ 36.493256, -1.046293 ] } },
{ "type": "Feature", "properties": { "oid": 1111259, "country": "kenya", "type": "stop", "name": "Naivasha Inland Container Depot (SGR)", "facility": "dry_port", "gauge": "1435" }, "geometry": { "type": "Point", "coordinates": [ 36.479091, -1.045741 ] } },
{ "type": "Feature", "properties": { "oid": 1110295, "country": "kenya", "type": "station", "name": "Naivasha Railway Station", "facility": null, "gauge": "1000" }, "geometry": { "type": "Point", "coordinates": [ 36.43075, -0.716756 ] } },
{ "type": "Feature", "properties": { "oid": 1110059, "country": "kenya", "type": "station", "name": "Nakuru", "facility": null, "gauge": "1000" }, "geometry": { "type": "Point", "coordinates": [ 36.077541, -0.283451 ] } },
{ "type": "Feature", "properties": { "oid": 1110268, "country": "kenya", "type": "station", "name": "Namasoli", "facility": null, "gauge": "1000" }, "geometry": { "type": "Point", "coordinates": [ 34.539133, 0.125034 ] } },
{ "type": "Feature", "properties": { "oid": 1111341, "country": "kenya", "type": "station", "name": "Nanyuki", "facility": null, "gauge": "1000" }, "geometry": { "type": "Point", "coordinates": [ 37.07023, 0.00768 ] } },
{ "type": "Feature", "properties": { "oid": 1110394, "country": "kenya", "type": "station", "name": "Naru Moro", "facility": null, "gauge": "1000" }, "geometry": { "type": "Point", "coordinates": [ 37.019512, -0.171524 ] } },
{ "type": "Feature", "properties": { "oid": 1110367, "country": "kenya", "type": "station", "name": "Ndara", "facility": null, "gauge": "1000" }, "geometry": { "type": "Point", "coordinates": [ 38.676549, -3.483924 ] } },
{ "type": "Feature", "properties": { "oid": 1110358, "country": "kenya", "type": "station", "name": "Ndi", "facility": null, "gauge": "1000" }, "geometry": { "type": "Point", "coordinates": [ 38.503132, -3.237257 ] } },
{ "type": "Feature", "properties": { "oid": 1111230, "country": "kenya", "type": "stop", "name": "Ngong", "facility": null, "gauge": "1435" }, "geometry": { "type": "Point", "coordinates": [ 36.681366, -1.350406 ] } },
{ "type": "Feature", "properties": { "oid": 1110696, "country": "kenya", "type": "station", "name": "Ngwata", "facility": null, "gauge": "1435" }, "geometry": { "type": "Point", "coordinates": [ 38.053806, -2.523644 ] } },
{ "type": "Feature", "properties": { "oid": 1110182, "country": "kenya", "type": "station", "name": "Ngwata", "facility": null, "gauge": "1000" }, "geometry": { "type": "Point", "coordinates": [ 38.051108, -2.519373 ] } },
{ "type": "Feature", "properties": { "oid": 1110066, "country": "kenya", "type": "station", "name": "Njoro", "facility": null, "gauge": "1000" }, "geometry": { "type": "Point", "coordinates": [ 35.9413, -0.330352 ] } },
{ "type": "Feature", "properties": { "oid": 1110386, "country": "kenya", "type": "station", "name": "Nyahururu", "facility": null, "gauge": "1000" }, "geometry": { "type": "Point", "coordinates": [ 36.36686, 0.039225 ] } },
{ "type": "Feature", "properties": { "oid": 1110323, "country": "kenya", "type": "station", "name": "Ol Kalou", "facility": null, "gauge": "1000" }, "geometry": { "type": "Point", "coordinates": [ 36.376837, -0.271771 ] } },
{ "type": "Feature", "properties": { "oid": 1111512, "country": "kenya", "type": "station", "name": "Old Mombasa Station", "facility": null, "gauge": "1000" }, "geometry": { "type": "Point", "coordinates": [ 39.661811, -4.057921 ] } },
{ "type": "Feature", "properties": { "oid": 1111231, "country": "kenya", "type": "stop", "name": "Ongata Rongai", "facility": null, "gauge": "1435" }, "geometry": { "type": "Point", "coordinates": [ 36.743259, -1.413555 ] } },
{ "type": "Feature", "properties": { "oid": 1111346, "country": "kenya", "type": "station", "name": "Ongata Rongai", "facility": null, "gauge": "1435" }, "geometry": { "type": "Point", "coordinates": [ 36.743302, -1.413557 ] } },
{ "type": "Feature", "properties": { "oid": 1111308, "country": "kenya", "type": "station", "name": "Pipeline Railway Stop", "facility": null, "gauge": "1000" }, "geometry": { "type": "Point", "coordinates": [ 36.895118, -1.316576 ] } },
{ "type": "Feature", "properties": { "oid": 1110239, "country": "kenya", "type": "station", "name": "Plateau", "facility": null, "gauge": "1000" }, "geometry": { "type": "Point", "coordinates": [ 35.36364, 0.437163 ] } },
{ "type": "Feature", "properties": { "oid": 1110588, "country": "kenya", "type": "halt", "name": "Railway Crossing", "facility": null, "gauge": "1000" }, "geometry": { "type": "Point", "coordinates": [ 35.810529, -0.304465 ] } },
{ "type": "Feature", "properties": { "oid": 1110728, "country": "kenya", "type": "stop", "name": "Railway Terminal", "facility": null, "gauge": "1000" }, "geometry": { "type": "Point", "coordinates": [ 39.615031, -4.008881 ] } },
{ "type": "Feature", "properties": { "oid": 1110057, "country": "kenya", "type": "station", "name": "Rongai", "facility": null, "gauge": "1000" }, "geometry": { "type": "Point", "coordinates": [ 35.861835, -0.175658 ] } },
{ "type": "Feature", "properties": { "oid": 1110174, "country": "kenya", "type": "station", "name": "Ruiru", "facility": null, "gauge": "1000" }, "geometry": { "type": "Point", "coordinates": [ 36.960536, -1.150336 ] } },
{ "type": "Feature", "properties": { "oid": 1110721, "country": "kenya", "type": "station", "name": "Ruiru Railway Station", "facility": null, "gauge": "1000" }, "geometry": { "type": "Point", "coordinates": [ 36.96077, -1.150163 ] } },
{ "type": "Feature", "properties": { "oid": 1110503, "country": "kenya", "type": "station", "name": "Sabatia", "facility": null, "gauge": "1000" }, "geometry": { "type": "Point", "coordinates": [ 35.745668, -0.029507 ] } },
{ "type": "Feature", "properties": { "oid": 1110539, "country": "kenya", "type": "station", "name": "Sagana", "facility": null, "gauge": "1000" }, "geometry": { "type": "Point", "coordinates": [ 37.20423, -0.66749 ] } },
{ "type": "Feature", "properties": { "oid": 1110279, "country": "kenya", "type": "station", "name": "Samburu", "facility": null, "gauge": "1000" }, "geometry": { "type": "Point", "coordinates": [ 39.27421, -3.77903 ] } },
{ "type": "Feature", "properties": { "oid": 1110178, "country": "kenya", "type": "station", "name": "Simba", "facility": null, "gauge": "1000" }, "geometry": { "type": "Point", "coordinates": [ 37.596014, -2.156053 ] } },
{ "type": "Feature", "properties": { "oid": 1110211, "country": "kenya", "type": "station", "name": "Sosian", "facility": null, "gauge": "1000" }, "geometry": { "type": "Point", "coordinates": [ 35.314326, 0.491918 ] } },
{ "type": "Feature", "properties": { "oid": 1110341, "country": "kenya", "type": "station", "name": "Soy", "facility": null, "gauge": "1000" }, "geometry": { "type": "Point", "coordinates": [ 35.177906, 0.679621 ] } },
{ "type": "Feature", "properties": { "oid": 1110347, "country": "kenya", "type": "station", "name": "Sultan Hamud", "facility": null, "gauge": "1000" }, "geometry": { "type": "Point", "coordinates": [ 37.370988, -2.018679 ] } },
{ "type": "Feature", "properties": { "oid": 1110192, "country": "kenya", "type": "station", "name": "Suswa", "facility": null, "gauge": "1000" }, "geometry": { "type": "Point", "coordinates": [ 36.455987, -0.831795 ] } },
{ "type": "Feature", "properties": { "oid": 1111229, "country": "kenya", "type": "stop", "name": "Suswa", "facility": null, "gauge": "1435" }, "geometry": { "type": "Point", "coordinates": [ 36.32044, -1.044526 ] } },
{ "type": "Feature", "properties": { "oid": 1111330, "country": "kenya", "type": "station", "name": "Syokimau Railway Station", "facility": null, "gauge": "1000" }, "geometry": { "type": "Point", "coordinates": [ 36.906996, -1.360053 ] } },
{ "type": "Feature", "properties": { "oid": 1110370, "country": "kenya", "type": "station", "name": "Taru", "facility": null, "gauge": "1000" }, "geometry": { "type": "Point", "coordinates": [ 39.151226, -3.739098 ] } },
{ "type": "Feature", "properties": { "oid": 1111339, "country": "kenya", "type": "station", "name": "Taveta", "facility": null, "gauge": "1000" }, "geometry": { "type": "Point", "coordinates": [ 37.672498, -3.395583 ] } },
{ "type": "Feature", "properties": { "oid": 1111306, "country": "kenya", "type": "station", "name": "Tawa Stage", "facility": null, "gauge": "1000" }, "geometry": { "type": "Point", "coordinates": [ 37.146724, -1.751823 ] } },
{ "type": "Feature", "properties": { "oid": 1110165, "country": "kenya", "type": "station", "name": "Timboroa", "facility": null, "gauge": "1000" }, "geometry": { "type": "Point", "coordinates": [ 35.541461, 0.063701 ] } },
{ "type": "Feature", "properties": { "oid": 1120700, "country": "kenya", "type": "station", "name": "Tsavo", "facility": null, "gauge": "1435" }, "geometry": { "type": "Point", "coordinates": [ 38.471612, -3.007158 ] } },
{ "type": "Feature", "properties": { "oid": 1110396, "country": "kenya", "type": "station", "name": "Tumeiyo", "facility": null, "gauge": "1000" }, "geometry": { "type": "Point", "coordinates": [ 35.527704, 0.230988 ] } },
{ "type": "Feature", "properties": { "oid": 1110339, "country": "kenya", "type": "station", "name": "Turbo", "facility": null, "gauge": "1000" }, "geometry": { "type": "Point", "coordinates": [ 35.053288, 0.631408 ] } },
{ "type": "Feature", "properties": { "oid": 1110188, "country": "kenya", "type": "station", "name": "Ulu", "facility": null, "gauge": "1000" }, "geometry": { "type": "Point", "coordinates": [ 37.143872, -1.812862 ] } },
{ "type": "Feature", "properties": { "oid": 1110251, "country": "kenya", "type": "station", "name": "unnamed", "facility": null, "gauge": "1000" }, "geometry": { "type": "Point", "coordinates": [ 35.355529, -0.225338 ] } },
{ "type": "Feature", "properties": { "oid": 1110345, "country": "kenya", "type": "station", "name": "unnamed", "facility": null, "gauge": "1000" }, "geometry": { "type": "Point", "coordinates": [ 35.31534, -0.213271 ] } },
{ "type": "Feature", "properties": { "oid": 1110526, "country": "kenya", "type": "station", "name": "unnamed", "facility": null, "gauge": "1000" }, "geometry": { "type": "Point", "coordinates": [ 37.090553, -1.050608 ] } },
{ "type": "Feature", "properties": { "oid": 1110233, "country": "kenya", "type": "station", "name": "unnamed", "facility": null, "gauge": "1000" }, "geometry": { "type": "Point", "coordinates": [ 35.36551, -0.200824 ] } },
{ "type": "Feature", "properties": { "oid": 1111342, "country": "kenya", "type": "station", "name": "unnamed", "facility": null, "gauge": "1000" }, "geometry": { "type": "Point", "coordinates": [ 39.614788, -4.008891 ] } },
{ "type": "Feature", "properties": { "oid": 1110657, "country": "kenya", "type": "station", "name": "unnamed", "facility": null, "gauge": "1000" }, "geometry": { "type": "Point", "coordinates": [ 38.131844, -3.407674 ] } },
{ "type": "Feature", "properties": { "oid": 1110337, "country": "kenya", "type": "station", "name": "unnamed", "facility": null, "gauge": "1000" }, "geometry": { "type": "Point", "coordinates": [ 34.876003, 0.648812 ] } },
{ "type": "Feature", "properties": { "oid": 1110329, "country": "kenya", "type": "station", "name": "Uplands (Lari)", "facility": null, "gauge": "1000" }, "geometry": { "type": "Point", "coordinates": [ 36.643346, -1.038967 ] } },
{ "type": "Feature", "properties": { "oid": 1110056, "country": "kenya", "type": "station", "name": "Visoi", "facility": null, "gauge": "1000" }, "geometry": { "type": "Point", "coordinates": [ 35.798838, -0.10878 ] } },
{ "type": "Feature", "properties": { "oid": 1110360, "country": "kenya", "type": "station", "name": "Voi", "facility": null, "gauge": "1000" }, "geometry": { "type": "Point", "coordinates": [ 38.568963, -3.393287 ] } },
{ "type": "Feature", "properties": { "oid": 1121349, "country": "kenya", "type": "station", "name": "Voi Station", "facility": null, "gauge": "1435" }, "geometry": { "type": "Point", "coordinates": [ 38.575685, -3.403059 ] } },
{ "type": "Feature", "properties": { "oid": 1110369, "country": "kenya", "type": "station", "name": "Wangala", "facility": null, "gauge": "1000" }, "geometry": { "type": "Point", "coordinates": [ 38.833393, -3.605237 ] } },
{ "type": "Feature", "properties": { "oid": 1110476, "country": "kenya", "type": "station", "name": "Webuye", "facility": null, "gauge": "1000" }, "geometry": { "type": "Point", "coordinates": [ 34.771526, 0.603349 ] } },
{ "type": "Feature", "properties": { "oid": 1110266, "country": "kenya", "type": "station", "name": "Yala", "facility": null, "gauge": "1000" }, "geometry": { "type": "Point", "coordinates": [ 34.536488, 0.098453 ] } },
{ "type": "Feature", "properties": { "oid": 2220798, "country": "tanzania", "type": "station", "name": "Aghondi", "facility": null, "gauge": "1000" }, "geometry": { "type": "Point", "coordinates": [ 34.701612, -5.759091 ] } },
{ "type": "Feature", "properties": { "oid": 2220112, "country": "tanzania", "type": "station", "name": "Arusha", "facility": null, "gauge": "1000" }, "geometry": { "type": "Point", "coordinates": [ 36.681683, -3.376656 ] } },
{ "type": "Feature", "properties": { "oid": 2220243, "country": "tanzania", "type": "station", "name": "Bahi", "facility": null, "gauge": "1000" }, "geometry": { "type": "Point", "coordinates": [ 35.312983, -5.975039 ] } },
{ "type": "Feature", "properties": { "oid": 2220009, "country": "tanzania", "type": "station", "name": "Buguruni Mny Mnyamani", "facility": null, "gauge": "1000" }, "geometry": { "type": "Point", "coordinates": [ 39.238075, -6.838459 ] } },
{ "type": "Feature", "properties": { "oid": 2230721, "country": "tanzania", "type": "station", "name": "Bukene", "facility": null, "gauge": "1000" }, "geometry": { "type": "Point", "coordinates": [ 32.885986, -4.228041 ] } },
{ "type": "Feature", "properties": { "oid": 2220714, "country": "tanzania", "type": "station", "name": "Bukwimba", "facility": null, "gauge": "1000" }, "geometry": { "type": "Point", "coordinates": [ 33.415151, -2.797827 ] } },
{ "type": "Feature", "properties": { "oid": 2220404, "country": "tanzania", "type": "station", "name": "Chikola", "facility": null, "gauge": "1067" }, "geometry": { "type": "Point", "coordinates": [ 33.153303, -8.93622 ] } },
{ "type": "Feature", "properties": { "oid": 2220379, "country": "tanzania", "type": "station", "name": "Chimala", "facility": null, "gauge": "1067" }, "geometry": { "type": "Point", "coordinates": [ 34.036767, -8.856916 ] } },
{ "type": "Feature", "properties": { "oid": 2220150, "country": "tanzania", "type": "station", "name": "Chita", "facility": null, "gauge": "1067" }, "geometry": { "type": "Point", "coordinates": [ 35.942378, -8.522093 ] } },
{ "type": "Feature", "properties": { "oid": 2222785, "country": "tanzania", "type": "station", "name": "Dar es Salaam", "facility": null, "gauge": "1000" }, "geometry": { "type": "Point", "coordinates": [ 39.282164, -6.824191 ] } },
{ "type": "Feature", "properties": { "oid": 2221971, "country": "tanzania", "type": "station", "name": "Dar es Salaam", "facility": null, "gauge": "1067" }, "geometry": { "type": "Point", "coordinates": [ 39.245006, -6.846538 ] } },
{ "type": "Feature", "properties": { "oid": 2231958, "country": "tanzania", "type": "station", "name": "Dar es Salaam SGR", "facility": null, "gauge": "1435" }, "geometry": { "type": "Point", "coordinates": [ 39.282668, -6.824584 ] } },
{ "type": "Feature", "properties": { "oid": 2230712, "country": "tanzania", "type": "station", "name": "Fella", "facility": null, "gauge": "1000" }, "geometry": { "type": "Point", "coordinates": [ 33.033477, -2.64633 ] } },
{ "type": "Feature", "properties": { "oid": 2230405, "country": "tanzania", "type": "station", "name": "Fuga", "facility": null, "gauge": "1067" }, "geometry": { "type": "Point", "coordinates": [ 37.834743, -7.537201 ] } },
{ "type": "Feature", "properties": { "oid": 2220237, "country": "tanzania", "type": "station", "name": "Godegode", "facility": null, "gauge": "1000" }, "geometry": { "type": "Point", "coordinates": [ 36.558334, -6.535187 ] } },
{ "type": "Feature", "properties": { "oid": 2220799, "country": "tanzania", "type": "station", "name": "Goweko", "facility": null, "gauge": "1000" }, "geometry": { "type": "Point", "coordinates": [ 33.155768, -5.328733 ] } },
{ "type": "Feature", "properties": { "oid": 2220486, "country": "tanzania", "type": "station", "name": "Gulwe", "facility": null, "gauge": "1000" }, "geometry": { "type": "Point", "coordinates": [ 36.411477, -6.449754 ] } },
{ "type": "Feature", "properties": { "oid": 2220406, "country": "tanzania", "type": "station", "name": "Gwata", "facility": null, "gauge": "1067" }, "geometry": { "type": "Point", "coordinates": [ 38.502111, -7.135658 ] } },
{ "type": "Feature", "properties": { "oid": 2220301, "country": "tanzania", "type": "station", "name": "Idiga", "facility": null, "gauge": "1067" }, "geometry": { "type": "Point", "coordinates": [ 33.266044, -8.966279 ] } },
{ "type": "Feature", "properties": { "oid": 2230148, "country": "tanzania", "type": "station", "name": "Ifakara", "facility": null, "gauge": "1067" }, "geometry": { "type": "Point", "coordinates": [ 36.687887, -8.075814 ] } },
{ "type": "Feature", "properties": { "oid": 2220722, "country": "tanzania", "type": "station", "name": "Igalula", "facility": null, "gauge": "1000" }, "geometry": { "type": "Point", "coordinates": [ 33.016707, -5.237243 ] } },
{ "type": "Feature", "properties": { "oid": 2220492, "country": "tanzania", "type": "station", "name": "Igandu", "facility": null, "gauge": "1000" }, "geometry": { "type": "Point", "coordinates": [ 36.140705, -6.358338 ] } },
{ "type": "Feature", "properties": { "oid": 2220407, "country": "tanzania", "type": "station", "name": "Igurusi", "facility": null, "gauge": "1067" }, "geometry": { "type": "Point", "coordinates": [ 33.861495, -8.82636 ] } },
{ "type": "Feature", "properties": { "oid": 2220408, "country": "tanzania", "type": "halt", "name": "Ikule", "facility": null, "gauge": "1067" }, "geometry": { "type": "Point", "coordinates": [ 36.009737, -8.410512 ] } },
{ "type": "Feature", "properties": { "oid": 2220318, "country": "tanzania", "type": "station", "name": "Ikungi", "facility": null, "gauge": "1000" }, "geometry": { "type": "Point", "coordinates": [ 34.764438, -5.128833 ] } },
{ "type": "Feature", "properties": { "oid": 2220409, "country": "tanzania", "type": "station", "name": "Ilongo", "facility": null, "gauge": "1067" }, "geometry": { "type": "Point", "coordinates": [ 33.745045, -8.765333 ] } },
{ "type": "Feature", "properties": { "oid": 2221591, "country": "tanzania", "type": "stop", "name": "International Container Terminal", "facility": "container_port", "gauge": "1067" }, "geometry": { "type": "Point", "coordinates": [ 39.295684, -6.844635 ] } },
{ "type": "Feature", "properties": { "oid": 2222188, "country": "tanzania", "type": "stop", "name": "International Container Terminal", "facility": "container_port", "gauge": "1000" }, "geometry": { "type": "Point", "coordinates": [ 39.285668, -6.82933 ] } },
{ "type": "Feature", "properties": { "oid": 2220401, "country": "tanzania", "type": "station", "name": "Inyala", "facility": null, "gauge": "1067" }, "geometry": { "type": "Point", "coordinates": [ 33.604373, -8.877485 ] } },
{ "type": "Feature", "properties": { "oid": 2220496, "country": "tanzania", "type": "station", "name": "Isaka", "facility": "dry_port", "gauge": "1000" }, "geometry": { "type": "Point", "coordinates": [ 32.942923, -3.901741 ] } },
{ "type": "Feature", "properties": { "oid": 2220495, "country": "tanzania", "type": "station", "name": "Issuna", "facility": null, "gauge": "1000" }, "geometry": { "type": "Point", "coordinates": [ 34.774004, -5.40129 ] } },
{ "type": "Feature", "properties": { "oid": 2220726, "country": "tanzania", "type": "station", "name": "Itigi", "facility": null, "gauge": "1000" }, "geometry": { "type": "Point", "coordinates": [ 34.492045, -5.706641 ] } },
{ "type": "Feature", "properties": { "oid": 2220724, "country": "tanzania", "type": "station", "name": "Itulu", "facility": null, "gauge": "1000" }, "geometry": { "type": "Point", "coordinates": [ 32.86119, -5.139519 ] } },
{ "type": "Feature", "properties": { "oid": 2220711, "country": "tanzania", "type": "station", "name": "Kakola", "facility": null, "gauge": "1000" }, "geometry": { "type": "Point", "coordinates": [ 32.841817, -4.875315 ] } },
{ "type": "Feature", "properties": { "oid": 2220918, "country": "tanzania", "type": "halt", "name": "Kalenge", "facility": null, "gauge": "1000" }, "geometry": { "type": "Point", "coordinates": [ 29.879995, -4.963056 ] } },
{ "type": "Feature", "properties": { "oid": 2220048, "country": "tanzania", "type": "station", "name": "Kaliua", "facility": null, "gauge": "1000" }, "geometry": { "type": "Point", "coordinates": [ 31.792789, -5.061415 ] } },
{ "type": "Feature", "properties": { "oid": 2230029, "country": "tanzania", "type": "station", "name": "Kamata Kariakoo", "facility": null, "gauge": "1000" }, "geometry": { "type": "Point", "coordinates": [ 39.274267, -6.826758 ] } },
{ "type": "Feature", "properties": { "oid": 2220029, "country": "tanzania", "type": "station", "name": "Kamata Kariakoo", "facility": null, "gauge": "1435" }, "geometry": { "type": "Point", "coordinates": [ 39.274265, -6.826604 ] } },
{ "type": "Feature", "properties": { "oid": 2220410, "country": "tanzania", "type": "station", "name": "Kangaga", "facility": null, "gauge": "1067" }, "geometry": { "type": "Point", "coordinates": [ 34.503547, -8.762531 ] } },
{ "type": "Feature", "properties": { "oid": 2221952, "country": "tanzania", "type": "station", "name": "Kazuramimba", "facility": null, "gauge": "1000" }, "geometry": { "type": "Point", "coordinates": [ 29.999069, -4.99194 ] } },
{ "type": "Feature", "properties": { "oid": 2221951, "country": "tanzania", "type": "station", "name": "Kiberege", "facility": null, "gauge": "1067" }, "geometry": { "type": "Point", "coordinates": [ 36.856656, -7.953816 ] } },
{ "type": "Feature", "properties": { "oid": 2220485, "country": "tanzania", "type": "station", "name": "Kidete", "facility": null, "gauge": "1000" }, "geometry": { "type": "Point", "coordinates": [ 36.705667, -6.646845 ] } },
{ "type": "Feature", "properties": { "oid": 2220411, "country": "tanzania", "type": "station", "name": "Kidunda", "facility": null, "gauge": "1067" }, "geometry": { "type": "Point", "coordinates": [ 38.322691, -7.306336 ] } },
{ "type": "Feature", "properties": { "oid": 2220412, "country": "tanzania", "type": "station", "name": "Kifuru", "facility": null, "gauge": "1067" }, "geometry": { "type": "Point", "coordinates": [ 38.939173, -6.941551 ] } },
{ "type": "Feature", "properties": { "oid": 2220563, "country": "tanzania", "type": "station", "name": "Kigoma Central Station", "facility": null, "gauge": "1000" }, "geometry": { "type": "Point", "coordinates": [ 29.628663, -4.876319 ] } },
{ "type": "Feature", "properties": { "oid": 2220489, "country": "tanzania", "type": "station", "name": "Kigwe", "facility": null, "gauge": "1000" }, "geometry": { "type": "Point", "coordinates": [ 35.486365, -6.100448 ] } },
{ "type": "Feature", "properties": { "oid": 2220393, "country": "tanzania", "type": "station", "name": "Kilosa", "facility": null, "gauge": "1000" }, "geometry": { "type": "Point", "coordinates": [ 36.98494, -6.831319 ] } },
{ "type": "Feature", "properties": { "oid": 2220233, "country": "tanzania", "type": "station", "name": "Kimamba", "facility": null, "gauge": "1000" }, "geometry": { "type": "Point", "coordinates": [ 37.139745, -6.786445 ] } },
{ "type": "Feature", "properties": { "oid": 2220491, "country": "tanzania", "type": "station", "name": "Kintinku", "facility": null, "gauge": "1000" }, "geometry": { "type": "Point", "coordinates": [ 35.217593, -5.887096 ] } },
{ "type": "Feature", "properties": { "oid": 2220413, "country": "tanzania", "type": "station", "name": "Kinyanguru", "facility": null, "gauge": "1067" }, "geometry": { "type": "Point", "coordinates": [ 38.074596, -7.439812 ] } },
{ "type": "Feature", "properties": { "oid": 2220777, "country": "tanzania", "type": "station", "name": "Kipunguni B", "facility": null, "gauge": "1067" }, "geometry": { "type": "Point", "coordinates": [ 39.177767, -6.895244 ] } },
{ "type": "Feature", "properties": { "oid": 2220414, "country": "tanzania", "type": "station", "name": "Kisaki", "facility": null, "gauge": "1067" }, "geometry": { "type": "Point", "coordinates": [ 37.60686, -7.49544 ] } },
{ "type": "Feature", "properties": { "oid": 2221216, "country": "tanzania", "type": "station", "name": "Kitandalila", "facility": null, "gauge": "1067" }, "geometry": { "type": "Point", "coordinates": [ 35.041427, -8.830037 ] } },
{ "type": "Feature", "properties": { "oid": 2230750, "country": "tanzania", "type": "station", "name": "Kitete", "facility": null, "gauge": "1067" }, "geometry": { "type": "Point", "coordinates": [ 35.523372, -8.764453 ] } },
{ "type": "Feature", "properties": { "oid": 2220778, "country": "tanzania", "type": "station", "name": "Kitunda", "facility": null, "gauge": "1067" }, "geometry": { "type": "Point", "coordinates": [ 39.192527, -6.891434 ] } },
{ "type": "Feature", "properties": { "oid": 2220522, "country": "tanzania", "type": "station", "name": "Kiyowela", "facility": null, "gauge": "1067" }, "geometry": { "type": "Point", "coordinates": [ 35.20249, -8.764246 ] } },
{ "type": "Feature", "properties": { "oid": 2220779, "country": "tanzania", "type": "station", "name": "Kwa Limboa", "facility": null, "gauge": "1067" }, "geometry": { "type": "Point", "coordinates": [ 39.23185, -6.868201 ] } },
{ "type": "Feature", "properties": { "oid": 2240007, "country": "tanzania", "type": "station", "name": "Liganga mine", "facility": null, "gauge": "1435" }, "geometry": { "type": "Point", "coordinates": [ 34.974556, -9.915984 ] } },
{ "type": "Feature", "properties": { "oid": 2221182, "country": "tanzania", "type": "stop", "name": "Lugufu", "facility": null, "gauge": "1000" }, "geometry": { "type": "Point", "coordinates": [ 30.155774, -5.030733 ] } },
{ "type": "Feature", "properties": { "oid": 2220415, "country": "tanzania", "type": "station", "name": "Lumba", "facility": null, "gauge": "1067" }, "geometry": { "type": "Point", "coordinates": [ 33.64308, -8.81619 ] } },
{ "type": "Feature", "properties": { "oid": 2220783, "country": "tanzania", "type": "station", "name": "Lumo (Kigilagila)", "facility": null, "gauge": "1067" }, "geometry": { "type": "Point", "coordinates": [ 39.222501, -6.871437 ] } },
{ "type": "Feature", "properties": { "oid": 2220158, "country": "tanzania", "type": "station", "name": "Lumumwe", "facility": null, "gauge": "1067" }, "geometry": { "type": "Point", "coordinates": [ 35.713763, -8.843175 ] } },
{ "type": "Feature", "properties": { "oid": 2220780, "country": "tanzania", "type": "station", "name": "Magnus Secondary", "facility": null, "gauge": "1067" }, "geometry": { "type": "Point", "coordinates": [ 39.135608, -6.912518 ] } },
{ "type": "Feature", "properties": { "oid": 2220153, "country": "tanzania", "type": "station", "name": "Mahongole", "facility": null, "gauge": "1067" }, "geometry": { "type": "Point", "coordinates": [ 34.95341, -8.867153 ] } },
{ "type": "Feature", "properties": { "oid": 2220781, "country": "tanzania", "type": "station", "name": "Majohe", "facility": null, "gauge": "1067" }, "geometry": { "type": "Point", "coordinates": [ 39.140864, -6.903224 ] } },
{ "type": "Feature", "properties": { "oid": 2220165, "country": "tanzania", "type": "station", "name": "Makambako", "facility": "cargo_terminal", "gauge": "1067" }, "geometry": { "type": "Point", "coordinates": [ 34.824002, -8.840565 ] } },
{ "type": "Feature", "properties": { "oid": 2230797, "country": "tanzania", "type": "station", "name": "Makutopora", "facility": null, "gauge": "1000" }, "geometry": { "type": "Point", "coordinates": [ 35.113245, -5.786915 ] } },
{ "type": "Feature", "properties": { "oid": 2220416, "country": "tanzania", "type": "station", "name": "Malamba Station", "facility": null, "gauge": "1067" }, "geometry": { "type": "Point", "coordinates": [ 33.61606, -8.802758 ] } },
{ "type": "Feature", "properties": { "oid": 2220524, "country": "tanzania", "type": "station", "name": "Malampaka", "facility": null, "gauge": "1000" }, "geometry": { "type": "Point", "coordinates": [ 33.528129, -3.140384 ] } },
{ "type": "Feature", "properties": { "oid": 2223261, "country": "tanzania", "type": "stop", "name": "Malawi Cargo Centre", "facility": "dry_port", "gauge": "1067" }, "geometry": { "type": "Point", "coordinates": [ 39.28532, -6.860536 ] } },
{ "type": "Feature", "properties": { "oid": 2220715, "country": "tanzania", "type": "station", "name": "Malya", "facility": null, "gauge": "1000" }, "geometry": { "type": "Point", "coordinates": [ 33.509988, -2.97797 ] } },
{ "type": "Feature", "properties": { "oid": 2220417, "country": "tanzania", "type": "station", "name": "Mangula", "facility": null, "gauge": "1067" }, "geometry": { "type": "Point", "coordinates": [ 36.896271, -7.857022 ] } },
{ "type": "Feature", "properties": { "oid": 2220713, "country": "tanzania", "type": "station", "name": "Mantare", "facility": null, "gauge": "1000" }, "geometry": { "type": "Point", "coordinates": [ 33.234637, -2.732547 ] } },
{ "type": "Feature", "properties": { "oid": 2230478, "country": "tanzania", "type": "station", "name": "Manyoni", "facility": null, "gauge": "1000" }, "geometry": { "type": "Point", "coordinates": [ 34.839548, -5.750579 ] } },
{ "type": "Feature", "properties": { "oid": 2220478, "country": "tanzania", "type": "station", "name": "Manyoni", "facility": null, "gauge": "1000" }, "geometry": { "type": "Point", "coordinates": [ 34.839538, -5.750648 ] } },
{ "type": "Feature", "properties": { "oid": 2220031, "country": "tanzania", "type": "halt", "name": "Matambwe", "facility": null, "gauge": "1067" }, "geometry": { "type": "Point", "coordinates": [ 37.765391, -7.532082 ] } },
{ "type": "Feature", "properties": { "oid": 2220499, "country": "tanzania", "type": "station", "name": "Matipwili Village", "facility": null, "gauge": "1000" }, "geometry": { "type": "Point", "coordinates": [ 38.70938, -6.231841 ] } },
{ "type": "Feature", "properties": { "oid": 2220300, "country": "tanzania", "type": "station", "name": "Mbalizi", "facility": null, "gauge": "1067" }, "geometry": { "type": "Point", "coordinates": [ 33.350261, -8.941964 ] } },
{ "type": "Feature", "properties": { "oid": 2240002, "country": "tanzania", "type": "station", "name": "Mbamba Bay", "facility": null, "gauge": "1435" }, "geometry": { "type": "Point", "coordinates": [ 34.803249, -11.282108 ] } },
{ "type": "Feature", "properties": { "oid": 2221943, "country": "tanzania", "type": "station", "name": "Mbeya Station", "facility": null, "gauge": "1067" }, "geometry": { "type": "Point", "coordinates": [ 33.411869, -8.932239 ] } },
{ "type": "Feature", "properties": { "oid": 2220419, "country": "tanzania", "type": "station", "name": "Mbingu", "facility": null, "gauge": "1067" }, "geometry": { "type": "Point", "coordinates": [ 36.243588, -8.212511 ] } },
{ "type": "Feature", "properties": { "oid": 2240005, "country": "tanzania", "type": "station", "name": "Mchuchuma mine", "facility": null, "gauge": "1435" }, "geometry": { "type": "Point", "coordinates": [ 34.620342, -10.304645 ] } },
{ "type": "Feature", "properties": { "oid": 2220151, "country": "tanzania", "type": "station", "name": "Mlimba", "facility": null, "gauge": "1067" }, "geometry": { "type": "Point", "coordinates": [ 35.802161, -8.78264 ] } },
{ "type": "Feature", "properties": { "oid": 2220403, "country": "tanzania", "type": "station", "name": "Mlowo", "facility": null, "gauge": "1067" }, "geometry": { "type": "Point", "coordinates": [ 32.990369, -9.014862 ] } },
{ "type": "Feature", "properties": { "oid": 2220728, "country": "tanzania", "type": "station", "name": "Mngeta", "facility": null, "gauge": "1067" }, "geometry": { "type": "Point", "coordinates": [ 36.12879, -8.312492 ] } },
{ "type": "Feature", "properties": { "oid": 2221959, "country": "tanzania", "type": "station", "name": "Morogoro SGR", "facility": null, "gauge": "1435" }, "geometry": { "type": "Point", "coordinates": [ 37.663576, -6.754357 ] } },
{ "type": "Feature", "properties": { "oid": 2230312, "country": "tanzania", "type": "station", "name": "Morogoro Station", "facility": null, "gauge": "1000" }, "geometry": { "type": "Point", "coordinates": [ 37.672623, -6.822307 ] } },
{ "type": "Feature", "properties": { "oid": 2220116, "country": "tanzania", "type": "station", "name": "Moshi", "facility": null, "gauge": "1000" }, "geometry": { "type": "Point", "coordinates": [ 37.346128, -3.351301 ] } },
{ "type": "Feature", "properties": { "oid": 2220782, "country": "tanzania", "type": "station", "name": "Moshi Bar", "facility": null, "gauge": "1067" }, "geometry": { "type": "Point", "coordinates": [ 39.170229, -6.896796 ] } },
{ "type": "Feature", "properties": { "oid": 2220462, "country": "tanzania", "type": "station", "name": "Mpanda", "facility": null, "gauge": "1000" }, "geometry": { "type": "Point", "coordinates": [ 31.064189, -6.355202 ] } },
{ "type": "Feature", "properties": { "oid": 2221298, "country": "tanzania", "type": "station", "name": "Mpanga", "facility": null, "gauge": "1067" }, "geometry": { "type": "Point", "coordinates": [ 35.657061, -8.749238 ] } },
{ "type": "Feature", "properties": { "oid": 2220420, "country": "tanzania", "type": "station", "name": "Mpemba", "facility": null, "gauge": "1067" }, "geometry": { "type": "Point", "coordinates": [ 32.855277, -9.262875 ] } },
{ "type": "Feature", "properties": { "oid": 2220487, "country": "tanzania", "type": "station", "name": "Msagali", "facility": null, "gauge": "1000" }, "geometry": { "type": "Point", "coordinates": [ 36.310625, -6.358192 ] } },
{ "type": "Feature", "properties": { "oid": 2220421, "country": "tanzania", "type": "station", "name": "Msesule", "facility": null, "gauge": "1067" }, "geometry": { "type": "Point", "coordinates": [ 34.262703, -8.752849 ] } },
{ "type": "Feature", "properties": { "oid": 2220740, "country": "tanzania", "type": "station", "name": "Msolwa", "facility": "gauge_interchange", "gauge": "1067" }, "geometry": { "type": "Point", "coordinates": [ 37.040622, -7.799018 ] } },
{ "type": "Feature", "properties": { "oid": 2240006, "country": "tanzania", "type": "station", "name": "Mtwara", "facility": null, "gauge": "1435" }, "geometry": { "type": "Point", "coordinates": [ 40.208468, -10.278126 ] } },
{ "type": "Feature", "properties": { "oid": 2220458, "country": "tanzania", "type": "station", "name": "Muheza", "facility": null, "gauge": "1000" }, "geometry": { "type": "Point", "coordinates": [ 38.794078, -5.174041 ] } },
{ "type": "Feature", "properties": { "oid": 2220026, "country": "tanzania", "type": "station", "name": "Munase", "facility": null, "gauge": "1000" }, "geometry": { "type": "Point", "coordinates": [ 36.060949, -6.265042 ] } },
{ "type": "Feature", "properties": { "oid": 2220230, "country": "tanzania", "type": "station", "name": "Munisagara", "facility": null, "gauge": "1000" }, "geometry": { "type": "Point", "coordinates": [ 36.918045, -6.750386 ] } },
{ "type": "Feature", "properties": { "oid": 2220498, "country": "tanzania", "type": "station", "name": "Mvave Railway Station", "facility": null, "gauge": "1000" }, "geometry": { "type": "Point", "coordinates": [ 38.715976, -6.060059 ] } },
{ "type": "Feature", "properties": { "oid": 2220144, "country": "tanzania", "type": "station", "name": "Mwakanga", "facility": null, "gauge": "1067" }, "geometry": { "type": "Point", "coordinates": [ 39.11747, -6.915052 ] } },
{ "type": "Feature", "properties": { "oid": 2240009, "country": "tanzania", "type": "station", "name": "Mwanza (SGR)", "facility": null, "gauge": "1435" }, "geometry": { "type": "Point", "coordinates": [ 32.895115, -2.520081 ] } },
{ "type": "Feature", "properties": { "oid": 2220205, "country": "tanzania", "type": "station", "name": "MWANZA Railway Station", "facility": null, "gauge": "1000" }, "geometry": { "type": "Point", "coordinates": [ 32.898421, -2.52232 ] } },
{ "type": "Feature", "properties": { "oid": 2230333, "country": "tanzania", "type": "station", "name": "MWANZA SOUTH Railway Station", "facility": null, "gauge": "1000" }, "geometry": { "type": "Point", "coordinates": [ 32.905676, -2.545718 ] } },
{ "type": "Feature", "properties": { "oid": 2220241, "country": "tanzania", "type": "station", "name": "Mzaganza", "facility": null, "gauge": "1000" }, "geometry": { "type": "Point", "coordinates": [ 36.809273, -6.704965 ] } },
{ "type": "Feature", "properties": { "oid": 2220422, "country": "tanzania", "type": "station", "name": "Mzenga", "facility": null, "gauge": "1067" }, "geometry": { "type": "Point", "coordinates": [ 38.713734, -6.940692 ] } },
{ "type": "Feature", "properties": { "oid": 2230392, "country": "tanzania", "type": "station", "name": "Ndui Station", "facility": null, "gauge": "1000" }, "geometry": { "type": "Point", "coordinates": [ 31.244984, -6.286488 ] } },
{ "type": "Feature", "properties": { "oid": 2220482, "country": "tanzania", "type": "station", "name": "Pugu", "facility": null, "gauge": "1000" }, "geometry": { "type": "Point", "coordinates": [ 39.119997, -6.880125 ] } },
{ "type": "Feature", "properties": { "oid": 2231960, "country": "tanzania", "type": "station", "name": "Pugu SGR", "facility": null, "gauge": "1435" }, "geometry": { "type": "Point", "coordinates": [ 39.125226, -6.884384 ] } },
{ "type": "Feature", "properties": { "oid": 2220494, "country": "tanzania", "type": "station", "name": "Puma", "facility": null, "gauge": "1000" }, "geometry": { "type": "Point", "coordinates": [ 34.750525, -5.00363 ] } },
{ "type": "Feature", "properties": { "oid": 2220317, "country": "tanzania", "type": "station", "name": "Railway Station Singida", "facility": null, "gauge": "1000" }, "geometry": { "type": "Point", "coordinates": [ 34.740559, -4.825734 ] } },
{ "type": "Feature", "properties": { "oid": 2220423, "country": "tanzania", "type": "station", "name": "Ruipa", "facility": null, "gauge": "1067" }, "geometry": { "type": "Point", "coordinates": [ 36.396216, -8.151749 ] } },
{ "type": "Feature", "properties": { "oid": 2220169, "country": "tanzania", "type": "station", "name": "Rujewa", "facility": null, "gauge": "1067" }, "geometry": { "type": "Point", "coordinates": [ 34.386127, -8.730447 ] } },
{ "type": "Feature", "properties": { "oid": 2220044, "country": "tanzania", "type": "station", "name": "Ruvu", "facility": null, "gauge": "1000" }, "geometry": { "type": "Point", "coordinates": [ 38.661547, -6.809325 ] } },
{ "type": "Feature", "properties": { "oid": 2220037, "country": "tanzania", "type": "station", "name": "Saranda", "facility": null, "gauge": "1000" }, "geometry": { "type": "Point", "coordinates": [ 34.977263, -5.708966 ] } },
{ "type": "Feature", "properties": { "oid": 2220718, "country": "tanzania", "type": "station", "name": "Seke", "facility": null, "gauge": "1000" }, "geometry": { "type": "Point", "coordinates": [ 33.512329, -3.342171 ] } },
{ "type": "Feature", "properties": { "oid": 2220324, "country": "tanzania", "type": "station", "name": "Shinyanga Railway Station", "facility": null, "gauge": "1000" }, "geometry": { "type": "Point", "coordinates": [ 33.430716, -3.672316 ] } },
{ "type": "Feature", "properties": { "oid": 2220042, "country": "tanzania", "type": "station", "name": "Soga", "facility": null, "gauge": "1000" }, "geometry": { "type": "Point", "coordinates": [ 38.86248, -6.836593 ] } },
{ "type": "Feature", "properties": { "oid": 2220784, "country": "tanzania", "type": "station", "name": "Songosongo", "facility": null, "gauge": "1067" }, "geometry": { "type": "Point", "coordinates": [ 39.156104, -6.899367 ] } },
{ "type": "Feature", "properties": { "oid": 2220720, "country": "tanzania", "type": "station", "name": "Songwa", "facility": null, "gauge": "1000" }, "geometry": { "type": "Point", "coordinates": [ 33.520708, -3.510958 ] } },
{ "type": "Feature", "properties": { "oid": 2220008, "country": "tanzania", "type": "station", "name": "Tabata Matumbi", "facility": null, "gauge": "1000" }, "geometry": { "type": "Point", "coordinates": [ 39.229799, -6.824242 ] } },
{ "type": "Feature", "properties": { "oid": 2220025, "country": "tanzania", "type": "station", "name": "Tabata Mwananchi", "facility": null, "gauge": "1000" }, "geometry": { "type": "Point", "coordinates": [ 39.221901, -6.814971 ] } },
{ "type": "Feature", "properties": { "oid": 2230326, "country": "tanzania", "type": "station", "name": "TABORA Railway Station", "facility": null, "gauge": "1000" }, "geometry": { "type": "Point", "coordinates": [ 32.820865, -5.020157 ] } },
{ "type": "Feature", "properties": { "oid": 2221954, "country": "tanzania", "type": "station", "name": "Tanga", "facility": null, "gauge": "1000" }, "geometry": { "type": "Point", "coordinates": [ 39.09984, -5.074465 ] } },
{ "type": "Feature", "properties": { "oid": 2220114, "country": "tanzania", "type": "station", "name": "TRL Dodoma", "facility": null, "gauge": "1000" }, "geometry": { "type": "Point", "coordinates": [ 35.749349, -6.183955 ] } },
{ "type": "Feature", "properties": { "oid": 2220136, "country": "tanzania", "type": "station", "name": "Tunduma", "facility": null, "gauge": "1067" }, "geometry": { "type": "Point", "coordinates": [ 32.767756, -9.318332 ] } },
{ "type": "Feature", "properties": { "oid": 2221953, "country": "tanzania", "type": "station", "name": "Tura", "facility": null, "gauge": "1000" }, "geometry": { "type": "Point", "coordinates": [ 33.843292, -5.496741 ] } },
{ "type": "Feature", "properties": { "oid": 2221122, "country": "tanzania", "type": "station", "name": "Tura", "facility": null, "gauge": "1000" }, "geometry": { "type": "Point", "coordinates": [ 33.843261, -5.496746 ] } },
{ "type": "Feature", "properties": { "oid": 2221532, "country": "tanzania", "type": "station", "name": "Ubungo Maziwa", "facility": null, "gauge": "1000" }, "geometry": { "type": "Point", "coordinates": [ 39.2142, -6.798845 ] } },
{ "type": "Feature", "properties": { "oid": 2220472, "country": "tanzania", "type": "station", "name": "Uchindile", "facility": null, "gauge": "1067" }, "geometry": { "type": "Point", "coordinates": [ 35.414202, -8.770636 ] } },
{ "type": "Feature", "properties": { "oid": 2220641, "country": "tanzania", "type": "station", "name": "Ugalla", "facility": null, "gauge": "1000" }, "geometry": { "type": "Point", "coordinates": [ 31.166947, -5.784928 ] } },
{ "type": "Feature", "properties": { "oid": 2220484, "country": "tanzania", "type": "station", "name": "unnamed", "facility": null, "gauge": "1000" }, "geometry": { "type": "Point", "coordinates": [ 36.731065, -6.667232 ] } },
{ "type": "Feature", "properties": { "oid": 2220238, "country": "tanzania", "type": "station", "name": "unnamed", "facility": null, "gauge": "1000" }, "geometry": { "type": "Point", "coordinates": [ 36.624161, -6.567119 ] } },
{ "type": "Feature", "properties": { "oid": 2220240, "country": "tanzania", "type": "station", "name": "unnamed", "facility": null, "gauge": "1000" }, "geometry": { "type": "Point", "coordinates": [ 36.769044, -6.688707 ] } },
{ "type": "Feature", "properties": { "oid": 2220844, "country": "tanzania", "type": "station", "name": "unnamed", "facility": null, "gauge": "1000" }, "geometry": { "type": "Point", "coordinates": [ 33.499804, -3.537696 ] } },
{ "type": "Feature", "properties": { "oid": 2220239, "country": "tanzania", "type": "station", "name": "unnamed", "facility": null, "gauge": "1000" }, "geometry": { "type": "Point", "coordinates": [ 36.663063, -6.604751 ] } },
{ "type": "Feature", "properties": { "oid": 2220500, "country": "tanzania", "type": "station", "name": "Urambo", "facility": null, "gauge": "1000" }, "geometry": { "type": "Point", "coordinates": [ 32.071033, -5.0655 ] } },
{ "type": "Feature", "properties": { "oid": 2220917, "country": "tanzania", "type": "station", "name": "Uvinza", "facility": null, "gauge": "1000" }, "geometry": { "type": "Point", "coordinates": [ 30.385656, -5.105928 ] } },
{ "type": "Feature", "properties": { "oid": 2220424, "country": "tanzania", "type": "station", "name": "Uyole", "facility": null, "gauge": "1067" }, "geometry": { "type": "Point", "coordinates": [ 33.530988, -8.890957 ] } },
{ "type": "Feature", "properties": { "oid": 2220785, "country": "tanzania", "type": "station", "name": "Veta", "facility": null, "gauge": "1067" }, "geometry": { "type": "Point", "coordinates": [ 39.211837, -6.882479 ] } },
{ "type": "Feature", "properties": { "oid": 2220061, "country": "tanzania", "type": "station", "name": "Vwawa", "facility": null, "gauge": "1067" }, "geometry": { "type": "Point", "coordinates": [ 32.931402, -9.089554 ] } },
{ "type": "Feature", "properties": { "oid": 2220157, "country": "tanzania", "type": "station", "name": "Wangingmbe", "facility": null, "gauge": "1067" }, "geometry": { "type": "Point", "coordinates": [ 34.645656, -8.828001 ] } },
{ "type": "Feature", "properties": { "oid": 2220425, "country": "tanzania", "type": "station", "name": "Yombo", "facility": null, "gauge": "1067" }, "geometry": { "type": "Point", "coordinates": [ 39.235981, -6.867091 ] } },
{ "type": "Feature", "properties": { "oid": 2220488, "country": "tanzania", "type": "station", "name": "Zuzu", "facility": null, "gauge": "1000" }, "geometry": { "type": "Point", "coordinates": [ 35.638734, -6.175026 ] } },
{ "type": "Feature", "properties": { "oid": 4440575, "country": "uganda", "type": "stop", "name": "Awat Lela", "facility": null, "gauge": "1000" }, "geometry": { "type": "Point", "coordinates": [ 32.469738, 2.657482 ] } },
{ "type": "Feature", "properties": { "oid": 4440031, "country": "uganda", "type": "station", "name": "Bihanga", "facility": null, "gauge": "1000" }, "geometry": { "type": "Point", "coordinates": [ 30.629074, 0.19472 ] } },
{ "type": "Feature", "properties": { "oid": 4440045, "country": "uganda", "type": "station", "name": "Budumba", "facility": null, "gauge": "1000" }, "geometry": { "type": "Point", "coordinates": [ 33.803661, 0.825736 ] } },
{ "type": "Feature", "properties": { "oid": 4440049, "country": "uganda", "type": "station", "name": "Busembatia", "facility": null, "gauge": "1000" }, "geometry": { "type": "Point", "coordinates": [ 33.62874, 0.769932 ] } },
{ "type": "Feature", "properties": { "oid": 4440609, "country": "uganda", "type": "station", "name": "Gulu", "facility": "dry_port", "gauge": "1000" }, "geometry": { "type": "Point", "coordinates": [ 32.296805, 2.758178 ] } },
{ "type": "Feature", "properties": { "oid": 4440050, "country": "uganda", "type": "station", "name": "Iganga", "facility": null, "gauge": "1000" }, "geometry": { "type": "Point", "coordinates": [ 33.472999, 0.619997 ] } },
{ "type": "Feature", "properties": { "oid": 4450051, "country": "uganda", "type": "station", "name": "Jinja", "facility": null, "gauge": "1000" }, "geometry": { "type": "Point", "coordinates": [ 33.218796, 0.445256 ] } },
{ "type": "Feature", "properties": { "oid": 4441014, "country": "uganda", "type": "stop", "name": "Jinja Pier", "facility": "port", "gauge": "1000" }, "geometry": { "type": "Point", "coordinates": [ 33.207859, 0.413672 ] } },
{ "type": "Feature", "properties": { "oid": 4440032, "country": "uganda", "type": "station", "name": "Kabagole", "facility": null, "gauge": "1000" }, "geometry": { "type": "Point", "coordinates": [ 30.893482, 0.196722 ] } },
{ "type": "Feature", "properties": { "oid": 4441152, "country": "uganda", "type": "station", "name": "Kampala", "facility": null, "gauge": "1000" }, "geometry": { "type": "Point", "coordinates": [ 32.588552, 0.312051 ] } },
{ "type": "Feature", "properties": { "oid": 4440027, "country": "uganda", "type": "station", "name": "Kamwenge", "facility": null, "gauge": "1000" }, "geometry": { "type": "Point", "coordinates": [ 30.445773, 0.189057 ] } },
{ "type": "Feature", "properties": { "oid": 4440034, "country": "uganda", "type": "station", "name": "Kasambia", "facility": null, "gauge": "1000" }, "geometry": { "type": "Point", "coordinates": [ 31.325987, 0.258373 ] } },
{ "type": "Feature", "properties": { "oid": 4440341, "country": "uganda", "type": "station", "name": "Kasese", "facility": null, "gauge": "1000" }, "geometry": { "type": "Point", "coordinates": [ 30.092402, 0.170502 ] } },
{ "type": "Feature", "properties": { "oid": 4440533, "country": "uganda", "type": "stop", "name": "Lakwatomer", "facility": null, "gauge": "1000" }, "geometry": { "type": "Point", "coordinates": [ 32.421673, 2.697239 ] } },
{ "type": "Feature", "properties": { "oid": 4440670, "country": "uganda", "type": "station", "name": "Lira", "facility": null, "gauge": "1000" }, "geometry": { "type": "Point", "coordinates": [ 32.917049, 2.252425 ] } },
{ "type": "Feature", "properties": { "oid": 4440073, "country": "uganda", "type": "station", "name": "Mbale", "facility": null, "gauge": "1000" }, "geometry": { "type": "Point", "coordinates": [ 34.157081, 1.076857 ] } },
{ "type": "Feature", "properties": { "oid": 4440028, "country": "uganda", "type": "station", "name": "Mityana", "facility": null, "gauge": "1000" }, "geometry": { "type": "Point", "coordinates": [ 32.048506, 0.419211 ] } },
{ "type": "Feature", "properties": { "oid": 4440030, "country": "uganda", "type": "halt", "name": "Mpanga", "facility": null, "gauge": "1000" }, "geometry": { "type": "Point", "coordinates": [ 31.96534, 0.425907 ] } },
{ "type": "Feature", "properties": { "oid": 4440035, "country": "uganda", "type": "station", "name": "Musozi", "facility": null, "gauge": "1000" }, "geometry": { "type": "Point", "coordinates": [ 31.583465, 0.364792 ] } },
{ "type": "Feature", "properties": { "oid": 4440029, "country": "uganda", "type": "station", "name": "Myanzi", "facility": null, "gauge": "1000" }, "geometry": { "type": "Point", "coordinates": [ 31.914958, 0.414384 ] } },
{ "type": "Feature", "properties": { "oid": 4440046, "country": "uganda", "type": "station", "name": "Nagongora", "facility": null, "gauge": "1000" }, "geometry": { "type": "Point", "coordinates": [ 34.037924, 0.769472 ] } },
{ "type": "Feature", "properties": { "oid": 4440264, "country": "uganda", "type": "station", "name": "Namaganda", "facility": null, "gauge": "1000" }, "geometry": { "type": "Point", "coordinates": [ 33.220184, 0.881151 ] } },
{ "type": "Feature", "properties": { "oid": 4440411, "country": "uganda", "type": "station", "name": "Namagoma Stage", "facility": null, "gauge": "1000" }, "geometry": { "type": "Point", "coordinates": [ 32.462298, 0.306484 ] } },
{ "type": "Feature", "properties": { "oid": 4440864, "country": "uganda", "type": "station", "name": "Namanve", "facility": null, "gauge": "1000" }, "geometry": { "type": "Point", "coordinates": [ 32.676863, 0.350797 ] } },
{ "type": "Feature", "properties": { "oid": 4440033, "country": "uganda", "type": "station", "name": "Nkonge", "facility": null, "gauge": "1000" }, "geometry": { "type": "Point", "coordinates": [ 31.181864, 0.235928 ] } },
{ "type": "Feature", "properties": { "oid": 4440601, "country": "uganda", "type": "station", "name": "Otwal", "facility": null, "gauge": "1000" }, "geometry": { "type": "Point", "coordinates": [ 32.718801, 2.493217 ] } },
{ "type": "Feature", "properties": { "oid": 4440870, "country": "uganda", "type": "stop", "name": "Port Bell", "facility": "port", "gauge": "1000" }, "geometry": { "type": "Point", "coordinates": [ 32.653277, 0.288263 ] } },
{ "type": "Feature", "properties": { "oid": 4440069, "country": "uganda", "type": "station", "name": "Tororo", "facility": null, "gauge": "1000" }, "geometry": { "type": "Point", "coordinates": [ 34.18828, 0.698813 ] } },
{ "type": "Feature", "properties": { "oid": 4440918, "country": "uganda", "type": "stop", "name": "Tororo Cement", "facility": "manufacturer", "gauge": "1000" }, "geometry": { "type": "Point", "coordinates": [ 34.154855, 0.660755 ] } },
{ "type": "Feature", "properties": { "oid": 4440586, "country": "uganda", "type": "stop", "name": "unnamed", "facility": null, "gauge": "1000" }, "geometry": { "type": "Point", "coordinates": [ 32.000605, 2.667033 ] } },
{ "type": "Feature", "properties": { "oid": 3330494, "country": "zambia", "type": "station", "name": "Batoka", "facility": null, "gauge": "1067" }, "geometry": { "type": "Point", "coordinates": [ 27.246522, -16.776839 ] } },
{ "type": "Feature", "properties": { "oid": 3330510, "country": "zambia", "type": "station", "name": "Chakalamo", "facility": null, "gauge": "1067" }, "geometry": { "type": "Point", "coordinates": [ 30.485279, -13.042316 ] } },
{ "type": "Feature", "properties": { "oid": 3340317, "country": "zambia", "type": "station", "name": "Chambeshi", "facility": null, "gauge": "1067" }, "geometry": { "type": "Point", "coordinates": [ 31.071374, -10.963018 ] } },
{ "type": "Feature", "properties": { "oid": 3340627, "country": "zambia", "type": "station", "name": "Chikonkomene Siding", "facility": null, "gauge": "1067" }, "geometry": { "type": "Point", "coordinates": [ 28.36225, -14.758322 ] } },
{ "type": "Feature", "properties": { "oid": 3330504, "country": "zambia", "type": "station", "name": "Chililabombwe", "facility": null, "gauge": "1067" }, "geometry": { "type": "Point", "coordinates": [ 27.84853, -12.387409 ] } },
{ "type": "Feature", "properties": { "oid": 3330074, "country": "zambia", "type": "station", "name": "Chilonga", "facility": null, "gauge": "1067" }, "geometry": { "type": "Point", "coordinates": [ 31.275654, -12.025823 ] } },
{ "type": "Feature", "properties": { "oid": 3330323, "country": "zambia", "type": "station", "name": "Chimba", "facility": null, "gauge": "1067" }, "geometry": { "type": "Point", "coordinates": [ 31.538033, -9.884843 ] } },
{ "type": "Feature", "properties": { "oid": 3330365, "country": "zambia", "type": "station", "name": "Chingola", "facility": null, "gauge": "1067" }, "geometry": { "type": "Point", "coordinates": [ 27.853506, -12.540822 ] } },
{ "type": "Feature", "properties": { "oid": 3340300, "country": "zambia", "type": "station", "name": "Chipata", "facility": null, "gauge": "1067" }, "geometry": { "type": "Point", "coordinates": [ 32.641527, -13.671453 ] } },
{ "type": "Feature", "properties": { "oid": 3330124, "country": "zambia", "type": "station", "name": "Chisamba", "facility": null, "gauge": "1067" }, "geometry": { "type": "Point", "coordinates": [ 28.379634, -14.980768 ] } },
{ "type": "Feature", "properties": { "oid": 3330130, "country": "zambia", "type": "station", "name": "Choma", "facility": null, "gauge": "1067" }, "geometry": { "type": "Point", "coordinates": [ 26.984352, -16.81164 ] } },
{ "type": "Feature", "properties": { "oid": 3330078, "country": "zambia", "type": "station", "name": "Finkuli", "facility": null, "gauge": "1067" }, "geometry": { "type": "Point", "coordinates": [ 30.984035, -12.718984 ] } },
{ "type": "Feature", "properties": { "oid": 3330507, "country": "zambia", "type": "station", "name": "Garneton", "facility": null, "gauge": "1067" }, "geometry": { "type": "Point", "coordinates": [ 28.16988, -12.737466 ] } },
{ "type": "Feature", "properties": { "oid": 3330054, "country": "zambia", "type": "station", "name": "Ishitu", "facility": null, "gauge": "1067" }, "geometry": { "type": "Point", "coordinates": [ 31.16578, -10.690252 ] } },
{ "type": "Feature", "properties": { "oid": 3330451, "country": "zambia", "type": "station", "name": "Kabuka", "facility": null, "gauge": "1067" }, "geometry": { "type": "Point", "coordinates": [ 31.275533, -11.551532 ] } },
{ "type": "Feature", "properties": { "oid": 3330011, "country": "zambia", "type": "station", "name": "Kabwe", "facility": null, "gauge": "1067" }, "geometry": { "type": "Point", "coordinates": [ 28.44076, -14.447798 ] } },
{ "type": "Feature", "properties": { "oid": 3330116, "country": "zambia", "type": "station", "name": "Kafue", "facility": null, "gauge": "1067" }, "geometry": { "type": "Point", "coordinates": [ 28.177347, -15.771274 ] } },
{ "type": "Feature", "properties": { "oid": 3330308, "country": "zambia", "type": "station", "name": "Kalomo", "facility": null, "gauge": "1067" }, "geometry": { "type": "Point", "coordinates": [ 26.486696, -17.021696 ] } },
{ "type": "Feature", "properties": { "oid": 3330066, "country": "zambia", "type": "station", "name": "Kalonje", "facility": null, "gauge": "1067" }, "geometry": { "type": "Point", "coordinates": [ 31.101859, -12.375801 ] } },
{ "type": "Feature", "properties": { "oid": 3330333, "country": "zambia", "type": "station", "name": "Kalulu", "facility": null, "gauge": "1067" }, "geometry": { "type": "Point", "coordinates": [ 32.248864, -9.397171 ] } },
{ "type": "Feature", "properties": { "oid": 3330511, "country": "zambia", "type": "station", "name": "Kanona", "facility": null, "gauge": "1067" }, "geometry": { "type": "Point", "coordinates": [ 30.655066, -13.048886 ] } },
{ "type": "Feature", "properties": { "oid": 3340561, "country": "zambia", "type": "station", "name": "Kapiri Mposhi ZR Station", "facility": null, "gauge": "1067" }, "geometry": { "type": "Point", "coordinates": [ 28.676098, -13.970006 ] } },
{ "type": "Feature", "properties": { "oid": 3330512, "country": "zambia", "type": "halt", "name": "Kapoko", "facility": null, "gauge": "1067" }, "geometry": { "type": "Point", "coordinates": [ 31.17769, -12.176525 ] } },
{ "type": "Feature", "properties": { "oid": 3331094, "country": "zambia", "type": "station", "name": "Karubwe Siding", "facility": null, "gauge": "1067" }, "geometry": { "type": "Point", "coordinates": [ 28.36499, -15.151417 ] } },
{ "type": "Feature", "properties": { "oid": 3330049, "country": "zambia", "type": "station", "name": "Kasama", "facility": null, "gauge": "1067" }, "geometry": { "type": "Point", "coordinates": [ 31.206718, -10.243414 ] } },
{ "type": "Feature", "properties": { "oid": 3340628, "country": "zambia", "type": "station", "name": "Kasavasa Siding", "facility": null, "gauge": "1067" }, "geometry": { "type": "Point", "coordinates": [ 28.379821, -14.577398 ] } },
{ "type": "Feature", "properties": { "oid": 3330453, "country": "zambia", "type": "station", "name": "Kasongo", "facility": null, "gauge": "1067" }, "geometry": { "type": "Point", "coordinates": [ 31.233254, -11.312975 ] } },
{ "type": "Feature", "properties": { "oid": 3330796, "country": "zambia", "type": "station", "name": "Kataba", "facility": null, "gauge": "1067" }, "geometry": { "type": "Point", "coordinates": [ 25.063891, -16.06198 ] } },
{ "type": "Feature", "properties": { "oid": 3330310, "country": "zambia", "type": "station", "name": "Kawila", "facility": null, "gauge": "1067" }, "geometry": { "type": "Point", "coordinates": [ 32.475487, -9.309545 ] } },
{ "type": "Feature", "properties": { "oid": 3330327, "country": "zambia", "type": "station", "name": "Kayaya", "facility": null, "gauge": "1067" }, "geometry": { "type": "Point", "coordinates": [ 31.640283, -9.799125 ] } },
{ "type": "Feature", "properties": { "oid": 3331730, "country": "zambia", "type": "stop", "name": "KCM Konkola Copper Mine", "facility": "mine", "gauge": "1067" }, "geometry": { "type": "Point", "coordinates": [ 27.830895, -12.371012 ] } },
{ "type": "Feature", "properties": { "oid": 3331740, "country": "zambia", "type": "stop", "name": "KCM Nchanga Copper Mine", "facility": "mine", "gauge": "1067" }, "geometry": { "type": "Point", "coordinates": [ 27.853916, -12.523941 ] } },
{ "type": "Feature", "properties": { "oid": 3331417, "country": "zambia", "type": "stop", "name": "KCM Nkana Refinery", "facility": "refinery", "gauge": "1067" }, "geometry": { "type": "Point", "coordinates": [ 28.202114, -12.835953 ] } },
{ "type": "Feature", "properties": { "oid": 3330033, "country": "zambia", "type": "station", "name": "Kitwe", "facility": null, "gauge": "1067" }, "geometry": { "type": "Point", "coordinates": [ 28.20767, -12.822494 ] } },
{ "type": "Feature", "properties": { "oid": 3330352, "country": "zambia", "type": "station", "name": "Kungu", "facility": null, "gauge": "1067" }, "geometry": { "type": "Point", "coordinates": [ 31.240021, -10.183776 ] } },
{ "type": "Feature", "properties": { "oid": 3330499, "country": "zambia", "type": "station", "name": "Lilayi", "facility": null, "gauge": "1067" }, "geometry": { "type": "Point", "coordinates": [ 28.297617, -15.512812 ] } },
{ "type": "Feature", "properties": { "oid": 3330000, "country": "zambia", "type": "station", "name": "Livingstone", "facility": null, "gauge": "1067" }, "geometry": { "type": "Point", "coordinates": [ 25.856815, -17.859281 ] } },
{ "type": "Feature", "properties": { "oid": 3330025, "country": "zambia", "type": "station", "name": "Luanshya", "facility": null, "gauge": "1067" }, "geometry": { "type": "Point", "coordinates": [ 28.417167, -13.133852 ] } },
{ "type": "Feature", "properties": { "oid": 3330127, "country": "zambia", "type": "station", "name": "Lubombo", "facility": null, "gauge": "1067" }, "geometry": { "type": "Point", "coordinates": [ 27.875926, -15.865567 ] } },
{ "type": "Feature", "properties": { "oid": 3330093, "country": "zambia", "type": "station", "name": "Lunsemfwa", "facility": null, "gauge": "1067" }, "geometry": { "type": "Point", "coordinates": [ 29.050672, -13.789764 ] } },
{ "type": "Feature", "properties": { "oid": 3330106, "country": "zambia", "type": "station", "name": "Lusaka", "facility": null, "gauge": "1067" }, "geometry": { "type": "Point", "coordinates": [ 28.284022, -15.419729 ] } },
{ "type": "Feature", "properties": { "oid": 3331106, "country": "zambia", "type": "station", "name": "Lusaka Railway Station", "facility": null, "gauge": "1067" }, "geometry": { "type": "Point", "coordinates": [ 28.284056, -15.419948 ] } },
{ "type": "Feature", "properties": { "oid": 3330309, "country": "zambia", "type": "station", "name": "Luslwasi", "facility": null, "gauge": "1067" }, "geometry": { "type": "Point", "coordinates": [ 30.686312, -12.95056 ] } },
{ "type": "Feature", "properties": { "oid": 3330496, "country": "zambia", "type": "station", "name": "Magoye", "facility": null, "gauge": "1067" }, "geometry": { "type": "Point", "coordinates": [ 27.61019, -16.003519 ] } },
{ "type": "Feature", "properties": { "oid": 3330329, "country": "zambia", "type": "station", "name": "Makasa", "facility": null, "gauge": "1067" }, "geometry": { "type": "Point", "coordinates": [ 31.897859, -9.665563 ] } },
{ "type": "Feature", "properties": { "oid": 3330490, "country": "zambia", "type": "halt", "name": "Makunka", "facility": null, "gauge": "1067" }, "geometry": { "type": "Point", "coordinates": [ 25.643741, -17.534306 ] } },
{ "type": "Feature", "properties": { "oid": 3330214, "country": "zambia", "type": "station", "name": "Masuka", "facility": null, "gauge": "1067" }, "geometry": { "type": "Point", "coordinates": [ 27.106592, -17.27374 ] } },
{ "type": "Feature", "properties": { "oid": 3330123, "country": "zambia", "type": "station", "name": "Mazabuka", "facility": null, "gauge": "1067" }, "geometry": { "type": "Point", "coordinates": [ 27.763018, -15.856478 ] } },
{ "type": "Feature", "properties": { "oid": 3330500, "country": "zambia", "type": "station", "name": "Miswa Siding", "facility": null, "gauge": "1067" }, "geometry": { "type": "Point", "coordinates": [ 28.339503, -14.874288 ] } },
{ "type": "Feature", "properties": { "oid": 3330092, "country": "zambia", "type": "station", "name": "Mkushi", "facility": null, "gauge": "1067" }, "geometry": { "type": "Point", "coordinates": [ 29.403403, -13.640017 ] } },
{ "type": "Feature", "properties": { "oid": 3330083, "country": "zambia", "type": "station", "name": "Mkushi River", "facility": null, "gauge": "1067" }, "geometry": { "type": "Point", "coordinates": [ 29.710225, -13.564577 ] } },
{ "type": "Feature", "properties": { "oid": 3330122, "country": "zambia", "type": "station", "name": "Monze", "facility": null, "gauge": "1067" }, "geometry": { "type": "Point", "coordinates": [ 27.478532, -16.269873 ] } },
{ "type": "Feature", "properties": { "oid": 3330456, "country": "zambia", "type": "station", "name": "Mpepo", "facility": null, "gauge": "1067" }, "geometry": { "type": "Point", "coordinates": [ 31.10696, -11.082181 ] } },
{ "type": "Feature", "properties": { "oid": 3330056, "country": "zambia", "type": "station", "name": "Mpika", "facility": null, "gauge": "1067" }, "geometry": { "type": "Point", "coordinates": [ 31.390845, -11.847627 ] } },
{ "type": "Feature", "properties": { "oid": 3330334, "country": "zambia", "type": "station", "name": "Msanza", "facility": null, "gauge": "1067" }, "geometry": { "type": "Point", "coordinates": [ 32.611095, -9.313051 ] } },
{ "type": "Feature", "properties": { "oid": 3330506, "country": "zambia", "type": "station", "name": "Mufulira", "facility": null, "gauge": "1067" }, "geometry": { "type": "Point", "coordinates": [ 28.256657, -12.539523 ] } },
{ "type": "Feature", "properties": { "oid": 3330486, "country": "zambia", "type": "station", "name": "Mulobezi", "facility": null, "gauge": "1067" }, "geometry": { "type": "Point", "coordinates": [ 25.172646, -16.777252 ] } },
{ "type": "Feature", "properties": { "oid": 3330312, "country": "zambia", "type": "station", "name": "Mwenzo", "facility": null, "gauge": "1067" }, "geometry": { "type": "Point", "coordinates": [ 32.671178, -9.330524 ] } },
{ "type": "Feature", "properties": { "oid": 3330202, "country": "zambia", "type": "station", "name": "Nakonde", "facility": null, "gauge": "1067" }, "geometry": { "type": "Point", "coordinates": [ 32.757888, -9.309431 ] } },
{ "type": "Feature", "properties": { "oid": 3330090, "country": "zambia", "type": "station", "name": "Ndabala", "facility": null, "gauge": "1067" }, "geometry": { "type": "Point", "coordinates": [ 29.819089, -13.492457 ] } },
{ "type": "Feature", "properties": { "oid": 3331118, "country": "zambia", "type": "stop", "name": "Ndola Lime Company", "facility": "quarry", "gauge": "1067" }, "geometry": { "type": "Point", "coordinates": [ 28.704894, -12.986618 ] } },
{ "type": "Feature", "properties": { "oid": 3330010, "country": "zambia", "type": "station", "name": "Ndola Train Station", "facility": null, "gauge": "1067" }, "geometry": { "type": "Point", "coordinates": [ 28.654218, -12.963554 ] } },
{ "type": "Feature", "properties": { "oid": 3330498, "country": "zambia", "type": "station", "name": "Nega Nega", "facility": null, "gauge": "1067" }, "geometry": { "type": "Point", "coordinates": [ 28.030493, -15.83189 ] } },
{ "type": "Feature", "properties": { "oid": 3330084, "country": "zambia", "type": "station", "name": "New Kapiri Mposhi", "facility": null, "gauge": "1067" }, "geometry": { "type": "Point", "coordinates": [ 28.681218, -13.954925 ] } },
{ "type": "Feature", "properties": { "oid": 3330693, "country": "zambia", "type": "station", "name": "Ngwerere station", "facility": null, "gauge": "1067" }, "geometry": { "type": "Point", "coordinates": [ 28.325841, -15.307811 ] } },
{ "type": "Feature", "properties": { "oid": 3330057, "country": "zambia", "type": "station", "name": "Nkolemfumu", "facility": null, "gauge": "1067" }, "geometry": { "type": "Point", "coordinates": [ 31.2028, -10.536689 ] } },
{ "type": "Feature", "properties": { "oid": 3330081, "country": "zambia", "type": "station", "name": "Nkolonga", "facility": null, "gauge": "1067" }, "geometry": { "type": "Point", "coordinates": [ 29.618124, -13.600754 ] } },
{ "type": "Feature", "properties": { "oid": 3330320, "country": "zambia", "type": "station", "name": "Nseluka", "facility": null, "gauge": "1067" }, "geometry": { "type": "Point", "coordinates": [ 31.260285, -9.943082 ] } },
{ "type": "Feature", "properties": { "oid": 3330495, "country": "zambia", "type": "station", "name": "Pemba", "facility": null, "gauge": "1067" }, "geometry": { "type": "Point", "coordinates": [ 27.359759, -16.520771 ] } },
{ "type": "Feature", "properties": { "oid": 3330053, "country": "zambia", "type": "station", "name": "Sabwa", "facility": null, "gauge": "1067" }, "geometry": { "type": "Point", "coordinates": [ 31.347252, -11.757407 ] } },
{ "type": "Feature", "properties": { "oid": 3330277, "country": "zambia", "type": "station", "name": "Senkobo", "facility": null, "gauge": "1067" }, "geometry": { "type": "Point", "coordinates": [ 25.940422, -17.624952 ] } },
{ "type": "Feature", "properties": { "oid": 3330061, "country": "zambia", "type": "station", "name": "Serenje", "facility": null, "gauge": "1067" }, "geometry": { "type": "Point", "coordinates": [ 30.216136, -13.233483 ] } },
{ "type": "Feature", "properties": { "oid": 3330423, "country": "zambia", "type": "halt", "name": "Simonga", "facility": null, "gauge": "1067" }, "geometry": { "type": "Point", "coordinates": [ 25.716837, -17.808468 ] } },
{ "type": "Feature", "properties": { "oid": 3330153, "country": "zambia", "type": "station", "name": "unnamed", "facility": null, "gauge": "1067" }, "geometry": { "type": "Point", "coordinates": [ 27.93036, -12.581995 ] } },
{ "type": "Feature", "properties": { "oid": 3330483, "country": "zambia", "type": "station", "name": "unnamed", "facility": null, "gauge": "1067" }, "geometry": { "type": "Point", "coordinates": [ 28.692463, -13.035193 ] } },
{ "type": "Feature", "properties": { "oid": 3330022, "country": "zambia", "type": "station", "name": "unnamed", "facility": null, "gauge": "1067" }, "geometry": { "type": "Point", "coordinates": [ 28.666227, -13.709323 ] } },
{ "type": "Feature", "properties": { "oid": 3330485, "country": "zambia", "type": "station", "name": "unnamed", "facility": null, "gauge": "1067" }, "geometry": { "type": "Point", "coordinates": [ 32.023164, -9.459623 ] } },
{ "type": "Feature", "properties": { "oid": 3330487, "country": "zambia", "type": "station", "name": "unnamed", "facility": null, "gauge": "1067" }, "geometry": { "type": "Point", "coordinates": [ 25.297053, -17.042867 ] } },
{ "type": "Feature", "properties": { "oid": 3330488, "country": "zambia", "type": "halt", "name": "unnamed", "facility": null, "gauge": "1067" }, "geometry": { "type": "Point", "coordinates": [ 25.333697, -17.137503 ] } },
{ "type": "Feature", "properties": { "oid": 3330489, "country": "zambia", "type": "station", "name": "unnamed", "facility": null, "gauge": "1067" }, "geometry": { "type": "Point", "coordinates": [ 25.473675, -17.455628 ] } },
{ "type": "Feature", "properties": { "oid": 3330023, "country": "zambia", "type": "station", "name": "unnamed", "facility": null, "gauge": "1067" }, "geometry": { "type": "Point", "coordinates": [ 28.748413, -13.481219 ] } },
{ "type": "Feature", "properties": { "oid": 3330230, "country": "zambia", "type": "halt", "name": "unnamed", "facility": null, "gauge": "1067" }, "geometry": { "type": "Point", "coordinates": [ 31.987966, -9.608676 ] } },
{ "type": "Feature", "properties": { "oid": 3330032, "country": "zambia", "type": "station", "name": "unnamed", "facility": null, "gauge": "1067" }, "geometry": { "type": "Point", "coordinates": [ 28.751505, -13.311385 ] } },
{ "type": "Feature", "properties": { "oid": 3330503, "country": "zambia", "type": "station", "name": "unnamed", "facility": null, "gauge": "1067" }, "geometry": { "type": "Point", "coordinates": [ 28.55164, -14.146718 ] } },
{ "type": "Feature", "properties": { "oid": 3330505, "country": "zambia", "type": "station", "name": "unnamed", "facility": null, "gauge": "1067" }, "geometry": { "type": "Point", "coordinates": [ 28.075878, -12.660921 ] } },
{ "type": "Feature", "properties": { "oid": 3330307, "country": "zambia", "type": "station", "name": "Zimba", "facility": null, "gauge": "1067" }, "geometry": { "type": "Point", "coordinates": [ 26.196044, -17.31677 ] } }
]
}
